{
"type": "FeatureCollection",
"name": "NTEP_bubble_highschool",
"crs": { "type": "name", "properties": { "name": "urn:ogc:def:crs:EPSG::4269" } },
"features": [
{ "type": "Feature", "properties": { "id": "3-disd-000001", "name": "Adams", "pop": 67738.9572, "rhh": 10463.5053 }, "geometry": { "type": "Point", "coordinates": [ -96.689306809210194, 32.831802986133496 ] } },
{ "type": "Feature", "properties": { "id": "3-disd-000002", "name": "Adamson", "pop": 17764.5417, "rhh": 4265.2392 }, "geometry": { "type": "Point", "coordinates": [ -96.824253712307836, 32.743470241235748 ] } },
{ "type": "Feature", "properties": { "id": "3-disd-000003", "name": "Molina", "pop": 29169.9111, "rhh": 3161.3256 }, "geometry": { "type": "Point", "coordinates": [ -96.91115204837908, 32.734188289333851 ] } },
{ "type": "Feature", "properties": { "id": "3-disd-000004", "name": "Hillcrest", "pop": 79073.6222, "rhh": 26215.2386 }, "geometry": { "type": "Point", "coordinates": [ -96.792435922043438, 32.899027511896705 ] } },
{ "type": "Feature", "properties": { "id": "3-disd-000005", "name": "Jefferson", "pop": 53828.0525, "rhh": 13440.7878 }, "geometry": { "type": "Point", "coordinates": [ -96.906168935070113, 32.87421187057835 ] } },
{ "type": "Feature", "properties": { "id": "3-disd-000006", "name": "Kimball", "pop": 61819.9413, "rhh": 9605.7477 }, "geometry": { "type": "Point", "coordinates": [ -96.871772730392479, 32.702014956594653 ] } },
{ "type": "Feature", "properties": { "id": "3-disd-000007", "name": "Lincoln", "pop": 11979.9307, "rhh": 2514.75 }, "geometry": { "type": "Point", "coordinates": [ -96.751579241749283, 32.745146997482948 ] } },
{ "type": "Feature", "properties": { "id": "3-disd-000008", "name": "Pinkston", "pop": 41255.6266, "rhh": 8366.3775 }, "geometry": { "type": "Point", "coordinates": [ -96.873244647840664, 32.76788179043875 ] } },
{ "type": "Feature", "properties": { "id": "3-disd-000009", "name": "Roosevelt", "pop": 33618.8719, "rhh": 4725.9767 }, "geometry": { "type": "Point", "coordinates": [ -96.793237114490836, 32.730668647531047 ] } },
{ "type": "Feature", "properties": { "id": "3-disd-000010", "name": "Samuell", "pop": 57285.0517, "rhh": 7561.3719 }, "geometry": { "type": "Point", "coordinates": [ -96.681043466812838, 32.745146997482948 ] } },
{ "type": "Feature", "properties": { "id": "3-disd-000011", "name": "Seagoville", "pop": 41703.6526, "rhh": 3434.1187 }, "geometry": { "type": "Point", "coordinates": [ -96.575294338337216, 32.626932891538999 ] } },
{ "type": "Feature", "properties": { "id": "3-disd-000012", "name": "SOC", "pop": 56067.2043, "rhh": 8806.4924 }, "geometry": { "type": "Point", "coordinates": [ -96.792768403283333, 32.68757329812825 ] } },
{ "type": "Feature", "properties": { "id": "3-disd-000013", "name": "Spruce", "pop": 57791.2285, "rhh": 6542.2245 }, "geometry": { "type": "Point", "coordinates": [ -96.679179170220806, 32.708202662890898 ] } },
{ "type": "Feature", "properties": { "id": "3-disd-000014", "name": "Sunset", "pop": 29694.9046, "rhh": 4209.2262 }, "geometry": { "type": "Point", "coordinates": [ -96.848415612709843, 32.749785275299701 ] } },
{ "type": "Feature", "properties": { "id": "3-disd-000015", "name": "White", "pop": 96174.8631, "rhh": 23777.12 }, "geometry": { "type": "Point", "coordinates": [ -96.825178261174557, 32.927703175401547 ] } },
{ "type": "Feature", "properties": { "id": "3-disd-000016", "name": "Wilson", "pop": 66581.1106, "rhh": 15602.9055 }, "geometry": { "type": "Point", "coordinates": [ -96.755526226312142, 32.818664527346755 ] } },
{ "type": "Feature", "properties": { "id": "3-disd-000017", "name": "Carter", "pop": 51363.0271, "rhh": 10067.848 }, "geometry": { "type": "Point", "coordinates": [ -96.857200383976348, 32.661808895882601 ] } },
{ "type": "Feature", "properties": { "id": "3-disd-000018", "name": "North Dallas", "pop": 112961.6937, "rhh": 53309.755 }, "geometry": { "type": "Point", "coordinates": [ -96.82922561236947, 32.811033450565105 ] } },
{ "type": "Feature", "properties": { "id": "3-disd-000019", "name": "Skyline", "pop": 56875.8803, "rhh": 10348.8024 }, "geometry": { "type": "Point", "coordinates": [ -96.703420575336338, 32.791729889531354 ] } },
{ "type": "Feature", "properties": { "id": "3-disd-000020", "name": "Conrad", "pop": 30851.1003, "rhh": 11424.2682 }, "geometry": { "type": "Point", "coordinates": [ -96.678701206303316, 32.871541064662054 ] } },
{ "type": "Feature", "properties": { "id": "3-disd-000021", "name": "Madison", "pop": 23275.0889, "rhh": 6292.4478 }, "geometry": { "type": "Point", "coordinates": [ -96.783307531776416, 32.766177796888549 ] } },
{ "type": "Feature", "properties": { "id": "3-disd-000022", "name": "Wilmer-Hutchins", "pop": 28774.2804, "rhh": 3380.1739 }, "geometry": { "type": "Point", "coordinates": [ -96.692722241209708, 32.626268487443753 ] } },
{ "type": "Feature", "properties": { "id": "3-risd-000001", "name": "Lake Highlands", "pop": 73706.3891, "rhh": 19821.9795 }, "geometry": { "type": "Point", "coordinates": [ -96.726044382970173, 32.8928299284944 ] } },
{ "type": "Feature", "properties": { "id": "3-risd-000002", "name": "Richardson", "pop": 35644.4997, "rhh": 6072.1433 }, "geometry": { "type": "Point", "coordinates": [ -96.786823220075192, 32.932056499025194 ] } },
{ "type": "Feature", "properties": { "id": "3-risd-000003", "name": "Pearce", "pop": 40318.3811, "rhh": 7434.0123 }, "geometry": { "type": "Point", "coordinates": [ -96.743285413047616, 32.972982601084098 ] } },
{ "type": "Feature", "properties": { "id": "3-risd-000004", "name": "Pearce/Richardson", "pop": 11670.0076, "rhh": 1114.4205 }, "geometry": { "type": "Point", "coordinates": [ -96.777387726950764, 32.968135523311147 ] } },
{ "type": "Feature", "properties": { "id": "3-risd-000005", "name": "Berkner", "pop": 68341.1437, "rhh": 13653.9007 }, "geometry": { "type": "Point", "coordinates": [ -96.712765318029028, 32.942558328682097 ] } },
{ "type": "Feature", "properties": { "id": "9-ntx-030001", "name": "Aledo ISD", "pop": 1396.6535, "rhh": 33.5392 }, "geometry": { "type": "Point", "coordinates": [ -97.538032469565309, 32.648326180700749 ] } },
{ "type": "Feature", "properties": { "id": "9-ntx-030002", "name": "Allen ISD", "pop": 104107.2629, "rhh": 11812.5881 }, "geometry": { "type": "Point", "coordinates": [ -96.676731520880395, 33.109370304464505 ] } },
{ "type": "Feature", "properties": { "id": "9-ntx-030003", "name": "Anna ISD", "pop": 26206.8802, "rhh": 1293.9176 }, "geometry": { "type": "Point", "coordinates": [ -96.526299876745497, 33.353315352375404 ] } },
{ "type": "Feature", "properties": { "id": "9-ntx-030004", "name": "Argyle ISD", "pop": 18025.2569, "rhh": 527.6631 }, "geometry": { "type": "Point", "coordinates": [ -97.182649100022786, 33.101786780774852 ] } },
{ "type": "Feature", "properties": { "id": "9-ntx-030005", "name": "Arlington ISD", "pop": 352260.6301, "rhh": 65857.5239 }, "geometry": { "type": "Point", "coordinates": [ -97.106539049725484, 32.721071709837148 ] } },
{ "type": "Feature", "properties": { "id": "9-ntx-030006", "name": "Aubrey ISD", "pop": 20018.7052, "rhh": 1671.244 }, "geometry": { "type": "Point", "coordinates": [ -96.964605203530169, 33.287915325905551 ] } },
{ "type": "Feature", "properties": { "id": "9-ntx-030007", "name": "Azle ISD", "pop": 25274.2796, "rhh": 2215.0052 }, "geometry": { "type": "Point", "coordinates": [ -97.521561465182103, 32.896824229044249 ] } },
{ "type": "Feature", "properties": { "id": "9-ntx-030008", "name": "Birdville ISD", "pop": 142627.5508, "rhh": 19900.4249 }, "geometry": { "type": "Point", "coordinates": [ -97.242824192251177, 32.834864227939903 ] } },
{ "type": "Feature", "properties": { "id": "9-ntx-030009", "name": "Bland ISD", "pop": 495.0252, "rhh": 28.759 }, "geometry": { "type": "Point", "coordinates": [ -96.305046436823503, 33.238066844888351 ] } },
{ "type": "Feature", "properties": { "id": "9-ntx-030010", "name": "Blue Ridge ISD", "pop": 3498.7638, "rhh": 132.6232 }, "geometry": { "type": "Point", "coordinates": [ -96.401719535161874, 33.309356351350445 ] } },
{ "type": "Feature", "properties": { "id": "9-ntx-030011", "name": "Burleson ISD", "pop": 58742.5254, "rhh": 5283.6786 }, "geometry": { "type": "Point", "coordinates": [ -97.310712325137786, 32.531110171688894 ] } },
{ "type": "Feature", "properties": { "id": "9-ntx-030012", "name": "Caddo Mills ISD", "pop": 0.0239, "rhh": 0.0006 }, "geometry": { "type": "Point", "coordinates": [ -96.296171822083778, 33.098946089134827 ] } },
{ "type": "Feature", "properties": { "id": "9-ntx-030013", "name": "Carroll ISD", "pop": 31821.718, "rhh": 651.0404 }, "geometry": { "type": "Point", "coordinates": [ -97.142482252817999, 32.950024254081598 ] } },
{ "type": "Feature", "properties": { "id": "9-ntx-030014", "name": "Carrollton-Farmers Branch ISD", "pop": 184878.8446, "rhh": 46578.8477 }, "geometry": { "type": "Point", "coordinates": [ -96.905674244214637, 32.944182261178454 ] } },
{ "type": "Feature", "properties": { "id": "9-ntx-030015", "name": "Castleberry ISD", "pop": 17609.5869, "rhh": 2385.0391 }, "geometry": { "type": "Point", "coordinates": [ -97.391193794313338, 32.781813212202152 ] } },
{ "type": "Feature", "properties": { "id": "9-ntx-030016", "name": "Cedar Hill ISD", "pop": 51429.7346, "rhh": 4930.4658 }, "geometry": { "type": "Point", "coordinates": [ -96.973095670597786, 32.594624697555645 ] } },
{ "type": "Feature", "properties": { "id": "9-ntx-030017", "name": "Celeste ISD", "pop": 0.0393, "rhh": 0.0017 }, "geometry": { "type": "Point", "coordinates": [ -96.295334132827335, 33.303886857578192 ] } },
{ "type": "Feature", "properties": { "id": "9-ntx-030018", "name": "Celina ISD", "pop": 27447.2006, "rhh": 662.2335 }, "geometry": { "type": "Point", "coordinates": [ -96.749008273660678, 33.33855333969835 ] } },
{ "type": "Feature", "properties": { "id": "9-ntx-030019", "name": "Community ISD", "pop": 15078.7665, "rhh": 347.3658 }, "geometry": { "type": "Point", "coordinates": [ -96.385961252097673, 33.040793300245596 ] } },
{ "type": "Feature", "properties": { "id": "9-ntx-030020", "name": "Coppell ISD", "pop": 56888.5176, "rhh": 6898.1062 }, "geometry": { "type": "Point", "coordinates": [ -96.986844883312543, 32.938526759015652 ] } },
{ "type": "Feature", "properties": { "id": "9-ntx-030021", "name": "Crandall ISD", "pop": 17110.488, "rhh": 688.8619 }, "geometry": { "type": "Point", "coordinates": [ -96.445912183421143, 32.596428721132 ] } },
{ "type": "Feature", "properties": { "id": "9-ntx-030022", "name": "Crowley ISD", "pop": 115118.59, "rhh": 15330.0273 }, "geometry": { "type": "Point", "coordinates": [ -97.391016524653196, 32.609079176574397 ] } },
{ "type": "Feature", "properties": { "id": "9-ntx-030023", "name": "Denton ISD", "pop": 218471.2591, "rhh": 30835.6256 }, "geometry": { "type": "Point", "coordinates": [ -97.092865083449155, 33.196973308215604 ] } },
{ "type": "Feature", "properties": { "id": "9-ntx-030024", "name": "DeSoto ISD", "pop": 61568.5244, "rhh": 4965.0126 }, "geometry": { "type": "Point", "coordinates": [ -96.865253561318269, 32.584050197122096 ] } },
{ "type": "Feature", "properties": { "id": "9-ntx-030025", "name": "Duncanville ISD", "pop": 76689.9379, "rhh": 10902.8023 }, "geometry": { "type": "Point", "coordinates": [ -96.93965750048045, 32.65510470758425 ] } },
{ "type": "Feature", "properties": { "id": "9-ntx-030026", "name": "Eagle Mountain-Saginaw ISD", "pop": 119774.4707, "rhh": 11211.9072 }, "geometry": { "type": "Point", "coordinates": [ -97.413121527024686, 32.907436231009797 ] } },
{ "type": "Feature", "properties": { "id": "9-ntx-030027", "name": "Era ISD", "pop": 133.5253, "rhh": 12.3241 }, "geometry": { "type": "Point", "coordinates": [ -97.323617191010371, 33.417606832843447 ] } },
{ "type": "Feature", "properties": { "id": "9-ntx-030028", "name": "Everman ISD", "pop": 27229.2861, "rhh": 2884.4224 }, "geometry": { "type": "Point", "coordinates": [ -97.274135247491387, 32.629240186244502 ] } },
{ "type": "Feature", "properties": { "id": "9-ntx-030029", "name": "Farmersville ISD", "pop": 11223.0223, "rhh": 580.9232 }, "geometry": { "type": "Point", "coordinates": [ -96.359940586863331, 33.164357825813198 ] } },
{ "type": "Feature", "properties": { "id": "9-ntx-030030", "name": "Ferris ISD", "pop": 13238.5311, "rhh": 875.3391 }, "geometry": { "type": "Point", "coordinates": [ -96.62269650974747, 32.498798696187748 ] } },
{ "type": "Feature", "properties": { "id": "9-ntx-030031", "name": "Forney ISD", "pop": 56499.1087, "rhh": 3666.8747 }, "geometry": { "type": "Point", "coordinates": [ -96.448874792218078, 32.730584242740747 ] } },
{ "type": "Feature", "properties": { "id": "9-ntx-030032", "name": "Fort Worth ISD", "pop": 523007.0992, "rhh": 90688.5511 }, "geometry": { "type": "Point", "coordinates": [ -97.367911507447872, 32.729409210892953 ] } },
{ "type": "Feature", "properties": { "id": "9-ntx-030033", "name": "Frisco ISD", "pop": 272900.0708, "rhh": 35438.1218 }, "geometry": { "type": "Point", "coordinates": [ -96.79848373817515, 33.149572311258552 ] } },
{ "type": "Feature", "properties": { "id": "9-ntx-030034", "name": "Garland ISD", "pop": 312689.4435, "rhh": 35338.4755 }, "geometry": { "type": "Point", "coordinates": [ -96.6093166178796, 32.906500765627399 ] } },
{ "type": "Feature", "properties": { "id": "9-ntx-030035", "name": "Godley ISD", "pop": 10717.8346, "rhh": 557.4196 }, "geometry": { "type": "Point", "coordinates": [ -97.546971718822206, 32.472487325219745 ] } },
{ "type": "Feature", "properties": { "id": "9-ntx-030036", "name": "Grand Prairie ISD", "pop": 129608.298, "rhh": 16466.4454 }, "geometry": { "type": "Point", "coordinates": [ -96.983325413487023, 32.728749721830951 ] } },
{ "type": "Feature", "properties": { "id": "9-ntx-030037", "name": "Grapevine-Colleyville ISD", "pop": 84433.8254, "rhh": 13260.6072 }, "geometry": { "type": "Point", "coordinates": [ -97.099916072182538, 32.908054248343205 ] } },
{ "type": "Feature", "properties": { "id": "9-ntx-030038", "name": "Highland Park ISD (Dallas)", "pop": 34976.7608, "rhh": 1960.8049 }, "geometry": { "type": "Point", "coordinates": [ -96.794691792831742, 32.842291249121146 ] } },
{ "type": "Feature", "properties": { "id": "9-ntx-030039", "name": "Hurst-Euless-Bedford ISD", "pop": 161863.2003, "rhh": 33951.6307 }, "geometry": { "type": "Point", "coordinates": [ -97.118913584276598, 32.822430227410599 ] } },
{ "type": "Feature", "properties": { "id": "9-ntx-030040", "name": "Irving ISD", "pop": 188735.4563, "rhh": 39297.5003 }, "geometry": { "type": "Point", "coordinates": [ -96.960758465014266, 32.832698740239906 ] } },
{ "type": "Feature", "properties": { "id": "9-ntx-030041", "name": "Joshua ISD", "pop": 31823.3036, "rhh": 2792.3588 }, "geometry": { "type": "Point", "coordinates": [ -97.363237806006111, 32.470138150446502 ] } },
{ "type": "Feature", "properties": { "id": "9-ntx-030042", "name": "Keller ISD", "pop": 175803.8342, "rhh": 16863.9123 }, "geometry": { "type": "Point", "coordinates": [ -97.254846923047978, 32.92075274714265 ] } },
{ "type": "Feature", "properties": { "id": "9-ntx-030043", "name": "Kennedale ISD", "pop": 20809.5108, "rhh": 2511.1206 }, "geometry": { "type": "Point", "coordinates": [ -97.207522604247714, 32.642663831622258 ] } },
{ "type": "Feature", "properties": { "id": "9-ntx-030044", "name": "Krum ISD", "pop": 8581.4101, "rhh": 428.6713 }, "geometry": { "type": "Point", "coordinates": [ -97.289220975113238, 33.273700823061176 ] } },
{ "type": "Feature", "properties": { "id": "9-ntx-030045", "name": "Lake Dallas ISD", "pop": 21322.5564, "rhh": 1981.5431 }, "geometry": { "type": "Point", "coordinates": [ -97.037701108753126, 33.122146789275305 ] } },
{ "type": "Feature", "properties": { "id": "9-ntx-030046", "name": "Lake Worth ISD", "pop": 23571.5147, "rhh": 4029.8267 }, "geometry": { "type": "Point", "coordinates": [ -97.412982631681786, 32.814962899509297 ] } },
{ "type": "Feature", "properties": { "id": "9-ntx-030047", "name": "Lancaster ISD", "pop": 44614.2322, "rhh": 5159.4622 }, "geometry": { "type": "Point", "coordinates": [ -96.767478872744903, 32.5998892022848 ] } },
{ "type": "Feature", "properties": { "id": "9-ntx-030048", "name": "Leonard ISD", "pop": 339.786, "rhh": 14.5047 }, "geometry": { "type": "Point", "coordinates": [ -96.3205308081167, 33.322634859475102 ] } },
{ "type": "Feature", "properties": { "id": "9-ntx-030049", "name": "Lewisville ISD", "pop": 322958.6716, "rhh": 48991.4872 }, "geometry": { "type": "Point", "coordinates": [ -96.985760045290476, 33.055088781013495 ] } },
{ "type": "Feature", "properties": { "id": "9-ntx-030050", "name": "Little Elm ISD", "pop": 57494.8349, "rhh": 3975.0706 }, "geometry": { "type": "Point", "coordinates": [ -96.950756249540319, 33.145681801599352 ] } },
{ "type": "Feature", "properties": { "id": "9-ntx-030051", "name": "Lovejoy ISD", "pop": 18222.7897, "rhh": 1197.2371 }, "geometry": { "type": "Point", "coordinates": [ -96.599668349862355, 33.119337310209801 ] } },
{ "type": "Feature", "properties": { "id": "9-ntx-030052", "name": "Mansfield ISD", "pop": 182441.6845, "rhh": 11986.4374 }, "geometry": { "type": "Point", "coordinates": [ -97.150708597169711, 32.585391180342 ] } },
{ "type": "Feature", "properties": { "id": "9-ntx-030053", "name": "McKinney ISD", "pop": 147037.6098, "rhh": 16134.3816 }, "geometry": { "type": "Point", "coordinates": [ -96.605856810830062, 33.220196323039545 ] } },
{ "type": "Feature", "properties": { "id": "9-ntx-030054", "name": "Melissa ISD", "pop": 11203.0522, "rhh": 414.6762 }, "geometry": { "type": "Point", "coordinates": [ -96.553822915186842, 33.274607341352102 ] } },
{ "type": "Feature", "properties": { "id": "9-ntx-030055", "name": "Mesquite ISD", "pop": 176495.7296, "rhh": 21428.8149 }, "geometry": { "type": "Point", "coordinates": [ -96.587337832749938, 32.758270739246448 ] } },
{ "type": "Feature", "properties": { "id": "9-ntx-030056", "name": "Midlothian ISD", "pop": 46350.3955, "rhh": 2761.3469 }, "geometry": { "type": "Point", "coordinates": [ -96.982528839061814, 32.463824673418799 ] } },
{ "type": "Feature", "properties": { "id": "9-ntx-030057", "name": "Northwest ISD", "pop": 120554.8557, "rhh": 9129.8006 }, "geometry": { "type": "Point", "coordinates": [ -97.28020558590751, 33.024451767308406 ] } },
{ "type": "Feature", "properties": { "id": "9-ntx-030058", "name": "Pilot Point ISD", "pop": 9824.215, "rhh": 900.6643 }, "geometry": { "type": "Point", "coordinates": [ -96.93505947135435, 33.354869339516995 ] } },
{ "type": "Feature", "properties": { "id": "9-ntx-030059", "name": "Plano ISD", "pop": 367276.4693, "rhh": 64315.0212 }, "geometry": { "type": "Point", "coordinates": [ -96.723022092631638, 33.044359796122706 ] } },
{ "type": "Feature", "properties": { "id": "9-ntx-030060", "name": "Ponder ISD", "pop": 7740.6482, "rhh": 426.3613 }, "geometry": { "type": "Point", "coordinates": [ -97.311068863905277, 33.181675793368051 ] } },
{ "type": "Feature", "properties": { "id": "9-ntx-030061", "name": "Princeton ISD", "pop": 21360.6869, "rhh": 1422.1813 }, "geometry": { "type": "Point", "coordinates": [ -96.492258297065405, 33.139767317017998 ] } },
{ "type": "Feature", "properties": { "id": "9-ntx-030062", "name": "Prosper ISD", "pop": 66363.8948, "rhh": 2826.6187 }, "geometry": { "type": "Point", "coordinates": [ -96.775899462085277, 33.238773324388397 ] } },
{ "type": "Feature", "properties": { "id": "9-ntx-030063", "name": "Red Oak ISD", "pop": 31712.0324, "rhh": 1766.2592 }, "geometry": { "type": "Point", "coordinates": [ -96.790103638237724, 32.4961366857735 ] } },
{ "type": "Feature", "properties": { "id": "9-ntx-030064", "name": "Rockwall ISD", "pop": 91099.5239, "rhh": 5653.3048 }, "geometry": { "type": "Point", "coordinates": [ -96.433949202317422, 32.89668727504705 ] } },
{ "type": "Feature", "properties": { "id": "9-ntx-030065", "name": "Royse City ISD", "pop": 25632.4822, "rhh": 952.2878 }, "geometry": { "type": "Point", "coordinates": [ -96.330612898750019, 32.922124782313546 ] } },
{ "type": "Feature", "properties": { "id": "9-ntx-030066", "name": "Sanger ISD", "pop": 17087.7443, "rhh": 1393.0929 }, "geometry": { "type": "Point", "coordinates": [ -97.172296018752476, 33.3632228360486 ] } },
{ "type": "Feature", "properties": { "id": "9-ntx-030067", "name": "Slidell ISD", "pop": 2311.97, "rhh": 182.1202 }, "geometry": { "type": "Point", "coordinates": [ -97.360331262553743, 33.355087910780348 ] } },
{ "type": "Feature", "properties": { "id": "9-ntx-030068", "name": "Sunnyvale ISD", "pop": 10493.1382, "rhh": 968.7317 }, "geometry": { "type": "Point", "coordinates": [ -96.549493848592618, 32.793633750671752 ] } },
{ "type": "Feature", "properties": { "id": "9-ntx-030070", "name": "Trenton ISD", "pop": 74.0375, "rhh": 3.1605 }, "geometry": { "type": "Point", "coordinates": [ -96.393305308085047, 33.385616368367195 ] } },
{ "type": "Feature", "properties": { "id": "9-ntx-030071", "name": "Van Alstyne ISD", "pop": 3351.6734, "rhh": 169.4568 }, "geometry": { "type": "Point", "coordinates": [ -96.582045941138944, 33.389292364411901 ] } },
{ "type": "Feature", "properties": { "id": "9-ntx-030072", "name": "White Settlement ISD", "pop": 34884.5633, "rhh": 4401.0751 }, "geometry": { "type": "Point", "coordinates": [ -97.5077795454864, 32.778767293587805 ] } },
{ "type": "Feature", "properties": { "id": "9-ntx-030073", "name": "Whitewright ISD", "pop": 70.06, "rhh": 2.9907 }, "geometry": { "type": "Point", "coordinates": [ -96.416107187113198, 33.390171368259544 ] } },
{ "type": "Feature", "properties": { "id": "9-ntx-030074", "name": "Wylie ISD (Collin)", "pop": 75603.8566, "rhh": 4824.9419 }, "geometry": { "type": "Point", "coordinates": [ -96.539331663393128, 33.030353795318952 ] } }
]
}
