{
"type": "FeatureCollection",
"name": "NTEP_bubble_highschool",
"crs": { "type": "name", "properties": { "name": "urn:ogc:def:crs:EPSG::4269" } },
"features": [
{ "type": "Feature", "properties": { "id": "3-16230001", "name": "Adams High School", "pop": 67738.962, "rhh": 10463.5056 }, "geometry": { "type": "Point", "coordinates": [ -96.689306809210194, 32.831802986133496 ] } },
{ "type": "Feature", "properties": { "id": "3-16230002", "name": "Adamson High School", "pop": 17764.5434, "rhh": 4265.2383 }, "geometry": { "type": "Point", "coordinates": [ -96.824253712307865, 32.743470241235755 ] } },
{ "type": "Feature", "properties": { "id": "3-16230003", "name": "Molina High School", "pop": 29169.9142, "rhh": 3161.3263 }, "geometry": { "type": "Point", "coordinates": [ -96.91115204837908, 32.734188289333851 ] } },
{ "type": "Feature", "properties": { "id": "3-16230004", "name": "Hillcrest High School", "pop": 79073.6189, "rhh": 26215.2374 }, "geometry": { "type": "Point", "coordinates": [ -96.792435922043438, 32.899027511896705 ] } },
{ "type": "Feature", "properties": { "id": "3-16230005", "name": "Jefferson High School", "pop": 53828.0569, "rhh": 13440.7897 }, "geometry": { "type": "Point", "coordinates": [ -96.906168935070113, 32.87421187057835 ] } },
{ "type": "Feature", "properties": { "id": "3-16230006", "name": "Kimball High School", "pop": 61819.9268, "rhh": 9605.7453 }, "geometry": { "type": "Point", "coordinates": [ -96.871772730392493, 32.702014956594653 ] } },
{ "type": "Feature", "properties": { "id": "3-16230007", "name": "Lincoln High School", "pop": 11979.9355, "rhh": 2514.7509 }, "geometry": { "type": "Point", "coordinates": [ -96.751579241749283, 32.745146997482948 ] } },
{ "type": "Feature", "properties": { "id": "3-16230008", "name": "Pinkston High School", "pop": 41255.6501, "rhh": 8366.3841 }, "geometry": { "type": "Point", "coordinates": [ -96.873244647840636, 32.76788179043875 ] } },
{ "type": "Feature", "properties": { "id": "3-16230009", "name": "Roosevelt High School", "pop": 33618.864, "rhh": 4725.9724 }, "geometry": { "type": "Point", "coordinates": [ -96.793237114490836, 32.730668647531061 ] } },
{ "type": "Feature", "properties": { "id": "3-16230010", "name": "Samuell High School", "pop": 57285.0462, "rhh": 7561.3718 }, "geometry": { "type": "Point", "coordinates": [ -96.681043466812838, 32.745146997482948 ] } },
{ "type": "Feature", "properties": { "id": "3-16230011", "name": "Seagoville High School", "pop": 41703.6678, "rhh": 3434.1197 }, "geometry": { "type": "Point", "coordinates": [ -96.57529433833723, 32.626932891538999 ] } },
{ "type": "Feature", "properties": { "id": "3-16230012", "name": "SOC High School", "pop": 56067.2216, "rhh": 8806.4972 }, "geometry": { "type": "Point", "coordinates": [ -96.792768403283333, 32.68757329812825 ] } },
{ "type": "Feature", "properties": { "id": "3-16230013", "name": "Spruce High School", "pop": 57791.2355, "rhh": 6542.2254 }, "geometry": { "type": "Point", "coordinates": [ -96.679179170220806, 32.708202662890898 ] } },
{ "type": "Feature", "properties": { "id": "3-16230014", "name": "Sunset High School", "pop": 29694.9011, "rhh": 4209.2234 }, "geometry": { "type": "Point", "coordinates": [ -96.848415612709843, 32.749785275299701 ] } },
{ "type": "Feature", "properties": { "id": "3-16230015", "name": "White High School", "pop": 96174.8554, "rhh": 23777.1186 }, "geometry": { "type": "Point", "coordinates": [ -96.825178261174557, 32.927703175401547 ] } },
{ "type": "Feature", "properties": { "id": "3-16230016", "name": "Wilson High School", "pop": 66581.1127, "rhh": 15602.9104 }, "geometry": { "type": "Point", "coordinates": [ -96.755526226312142, 32.818664527346741 ] } },
{ "type": "Feature", "properties": { "id": "3-16230017", "name": "Carter High School", "pop": 51363.0345, "rhh": 10067.8505 }, "geometry": { "type": "Point", "coordinates": [ -96.857200383976348, 32.661808895882601 ] } },
{ "type": "Feature", "properties": { "id": "3-16230018", "name": "North Dallas High School", "pop": 112961.7194, "rhh": 53309.7619 }, "geometry": { "type": "Point", "coordinates": [ -96.82922561236947, 32.811033450565105 ] } },
{ "type": "Feature", "properties": { "id": "3-16230019", "name": "Skyline High School", "pop": 56875.8793, "rhh": 10348.8027 }, "geometry": { "type": "Point", "coordinates": [ -96.70342057533631, 32.791729889531339 ] } },
{ "type": "Feature", "properties": { "id": "3-16230020", "name": "Conrad High School", "pop": 30851.1086, "rhh": 11424.2715 }, "geometry": { "type": "Point", "coordinates": [ -96.678701206231068, 32.871541064596649 ] } },
{ "type": "Feature", "properties": { "id": "3-16230021", "name": "Madison High School", "pop": 23275.079, "rhh": 6292.4501 }, "geometry": { "type": "Point", "coordinates": [ -96.783307531776416, 32.766177796888549 ] } },
{ "type": "Feature", "properties": { "id": "3-16230022", "name": "Wilmer-Hutchins High School", "pop": 28774.3206, "rhh": 3380.1802 }, "geometry": { "type": "Point", "coordinates": [ -96.692722241209708, 32.626268487443753 ] } },
{ "type": "Feature", "properties": { "id": "3-37020001", "name": "Lake Highlands High School", "pop": 73706.3968, "rhh": 19821.9816 }, "geometry": { "type": "Point", "coordinates": [ -96.726044380493462, 32.89282995 ] } },
{ "type": "Feature", "properties": { "id": "3-37020002", "name": "Richardson High School", "pop": 35644.5007, "rhh": 6072.1439 }, "geometry": { "type": "Point", "coordinates": [ -96.786823242423608, 32.9320565 ] } },
{ "type": "Feature", "properties": { "id": "3-37020003", "name": "Pearce High School", "pop": 40318.361, "rhh": 7434.0075 }, "geometry": { "type": "Point", "coordinates": [ -96.743285440508117, 32.9729826 ] } },
{ "type": "Feature", "properties": { "id": "3-37020004", "name": "Pearce/Richardson High School", "pop": 11670.0128, "rhh": 1114.42 }, "geometry": { "type": "Point", "coordinates": [ -96.777387750022996, 32.96813555 ] } },
{ "type": "Feature", "properties": { "id": "3-37020005", "name": "Berkner High School", "pop": 68341.1051, "rhh": 13653.8901 }, "geometry": { "type": "Point", "coordinates": [ -96.712765287893319, 32.942558350000013 ] } },
{ "type": "Feature", "properties": { "id": "9-30999910", "name": "Blue Ridge ISD", "pop": 3498.7615, "rhh": 132.6231 }, "geometry": { "type": "Point", "coordinates": [ -96.401719528473279, 33.3093564 ] } },
{ "type": "Feature", "properties": { "id": "9-30999911", "name": "Burleson ISD", "pop": 58742.5273, "rhh": 5283.6791 }, "geometry": { "type": "Point", "coordinates": [ -97.310712331685366, 32.5311102 ] } },
{ "type": "Feature", "properties": { "id": "9-30999912", "name": "Caddo Mills ISD", "pop": 0.0239, "rhh": 0.0006 }, "geometry": { "type": "Point", "coordinates": [ -96.296171818208791, 33.098946070113371 ] } },
{ "type": "Feature", "properties": { "id": "9-30999913", "name": "Carroll ISD", "pop": 31821.754, "rhh": 651.0405 }, "geometry": { "type": "Point", "coordinates": [ -97.142482231036212, 32.9500243 ] } },
{ "type": "Feature", "properties": { "id": "9-30999914", "name": "Carrollton-Farmers Branch ISD", "pop": 184878.9508, "rhh": 46578.8745 }, "geometry": { "type": "Point", "coordinates": [ -96.905674232086682, 32.9441823 ] } },
{ "type": "Feature", "properties": { "id": "9-30999915", "name": "Castleberry ISD", "pop": 17609.5765, "rhh": 2385.037 }, "geometry": { "type": "Point", "coordinates": [ -97.391193819982846, 32.7818132 ] } },
{ "type": "Feature", "properties": { "id": "9-30999916", "name": "Cedar Hill ISD", "pop": 51429.7835, "rhh": 4930.4691 }, "geometry": { "type": "Point", "coordinates": [ -96.973095662663965, 32.5946247 ] } },
{ "type": "Feature", "properties": { "id": "9-30999917", "name": "Celeste ISD", "pop": 0.0391, "rhh": 0.0017 }, "geometry": { "type": "Point", "coordinates": [ -96.295334125966122, 33.303886900001118 ] } },
{ "type": "Feature", "properties": { "id": "9-30999918", "name": "Celina ISD", "pop": 27447.1968, "rhh": 662.2338 }, "geometry": { "type": "Point", "coordinates": [ -96.74900827677746, 33.3385533 ] } },
{ "type": "Feature", "properties": { "id": "9-30999919", "name": "Community ISD", "pop": 15078.778, "rhh": 347.3661 }, "geometry": { "type": "Point", "coordinates": [ -96.385961275054228, 33.0407933 ] } },
{ "type": "Feature", "properties": { "id": "9-30999920", "name": "Coppell ISD", "pop": 56888.4808, "rhh": 6898.1041 }, "geometry": { "type": "Point", "coordinates": [ -96.986844901053757, 32.9385268 ] } },
{ "type": "Feature", "properties": { "id": "9-30999921", "name": "Crandall ISD", "pop": 17110.4445, "rhh": 688.8605 }, "geometry": { "type": "Point", "coordinates": [ -96.445912159455361, 32.5964287 ] } },
{ "type": "Feature", "properties": { "id": "9-30999922", "name": "Crowley ISD", "pop": 115118.6079, "rhh": 15330.0283 }, "geometry": { "type": "Point", "coordinates": [ -97.391016510562309, 32.6090792 ] } },
{ "type": "Feature", "properties": { "id": "9-30999923", "name": "Denton ISD", "pop": 218471.243, "rhh": 30835.626 }, "geometry": { "type": "Point", "coordinates": [ -97.092865108581648, 33.1969733 ] } },
{ "type": "Feature", "properties": { "id": "9-30999924", "name": "DeSoto ISD", "pop": 61568.5173, "rhh": 4965.0126 }, "geometry": { "type": "Point", "coordinates": [ -96.86525353090461, 32.5840502 ] } },
{ "type": "Feature", "properties": { "id": "9-30999925", "name": "Duncanville ISD", "pop": 76689.982, "rhh": 10902.8103 }, "geometry": { "type": "Point", "coordinates": [ -96.939657498582505, 32.65510470000001 ] } },
{ "type": "Feature", "properties": { "id": "9-30999926", "name": "Eagle Mountain-Saginaw ISD", "pop": 119774.44, "rhh": 11211.9027 }, "geometry": { "type": "Point", "coordinates": [ -97.413121539285711, 32.9074362 ] } },
{ "type": "Feature", "properties": { "id": "9-30999927", "name": "Era ISD", "pop": 133.5248, "rhh": 12.324 }, "geometry": { "type": "Point", "coordinates": [ -97.323617193902436, 33.4176068 ] } },
{ "type": "Feature", "properties": { "id": "9-30999928", "name": "Everman ISD", "pop": 27229.2922, "rhh": 2884.4232 }, "geometry": { "type": "Point", "coordinates": [ -97.274135211550742, 32.6292402 ] } },
{ "type": "Feature", "properties": { "id": "9-30999929", "name": "Farmersville ISD", "pop": 11223.0274, "rhh": 580.9236 }, "geometry": { "type": "Point", "coordinates": [ -96.359940612202507, 33.1643578 ] } },
{ "type": "Feature", "properties": { "id": "9-30999930", "name": "Ferris ISD", "pop": 13238.5109, "rhh": 875.3377 }, "geometry": { "type": "Point", "coordinates": [ -96.622696492981362, 32.4987987 ] } },
{ "type": "Feature", "properties": { "id": "9-30999931", "name": "Forney ISD", "pop": 56499.148, "rhh": 3666.8772 }, "geometry": { "type": "Point", "coordinates": [ -96.448874809409887, 32.7305842 ] } },
{ "type": "Feature", "properties": { "id": "9-30999932", "name": "Fort Worth ISD", "pop": 523007.0452, "rhh": 90688.5468 }, "geometry": { "type": "Point", "coordinates": [ -97.367911499552548, 32.7294092 ] } },
{ "type": "Feature", "properties": { "id": "9-30999933", "name": "Frisco ISD", "pop": 272900.1437, "rhh": 35438.1339 }, "geometry": { "type": "Point", "coordinates": [ -96.798483740932653, 33.1495723 ] } },
{ "type": "Feature", "properties": { "id": "9-30999934", "name": "Garland ISD", "pop": 312689.3527, "rhh": 35338.4595 }, "geometry": { "type": "Point", "coordinates": [ -96.60931663337054, 32.906500799999989 ] } },
{ "type": "Feature", "properties": { "id": "9-30999935", "name": "Godley ISD", "pop": 10717.8107, "rhh": 557.4193 }, "geometry": { "type": "Point", "coordinates": [ -97.546971728692455, 32.47248735 ] } },
{ "type": "Feature", "properties": { "id": "9-30999936", "name": "Grand Prairie ISD", "pop": 129608.2896, "rhh": 16466.4475 }, "geometry": { "type": "Point", "coordinates": [ -96.983325444839906, 32.7287497 ] } },
{ "type": "Feature", "properties": { "id": "9-30999937", "name": "Grapevine-Colleyville ISD", "pop": 84433.8664, "rhh": 13260.6276 }, "geometry": { "type": "Point", "coordinates": [ -97.099916063925434, 32.90805425 ] } },
{ "type": "Feature", "properties": { "id": "9-30999938", "name": "Highland Park ISD (Dallas)", "pop": 34976.8357, "rhh": 1960.8245 }, "geometry": { "type": "Point", "coordinates": [ -96.794691777421377, 32.84229125 ] } },
{ "type": "Feature", "properties": { "id": "9-30999939", "name": "Hurst-Euless-Bedford ISD", "pop": 161863.1149, "rhh": 33951.618 }, "geometry": { "type": "Point", "coordinates": [ -97.118913575819732, 32.8224302 ] } },
{ "type": "Feature", "properties": { "id": "9-30999940", "name": "Irving ISD", "pop": 188735.4472, "rhh": 39297.4877 }, "geometry": { "type": "Point", "coordinates": [ -96.960758485239666, 32.8326987 ] } },
{ "type": "Feature", "properties": { "id": "9-30999941", "name": "Joshua ISD", "pop": 31823.3291, "rhh": 2792.3605 }, "geometry": { "type": "Point", "coordinates": [ -97.36323780881402, 32.4701382 ] } },
{ "type": "Feature", "properties": { "id": "9-30999942", "name": "Keller ISD", "pop": 175803.9932, "rhh": 16863.9211 }, "geometry": { "type": "Point", "coordinates": [ -97.254846924197238, 32.9207527 ] } },
{ "type": "Feature", "properties": { "id": "9-30999943", "name": "Kennedale ISD", "pop": 20809.5171, "rhh": 2511.1211 }, "geometry": { "type": "Point", "coordinates": [ -97.207522584019046, 32.642663824617344 ] } },
{ "type": "Feature", "properties": { "id": "9-30999944", "name": "Krum ISD", "pop": 8581.4194, "rhh": 428.6716 }, "geometry": { "type": "Point", "coordinates": [ -97.28922098877041, 33.273701073084609 ] } },
{ "type": "Feature", "properties": { "id": "9-30999945", "name": "Lake Dallas ISD", "pop": 21322.5449, "rhh": 1981.5416 }, "geometry": { "type": "Point", "coordinates": [ -97.03770110197091, 33.12214680000001 ] } },
{ "type": "Feature", "properties": { "id": "9-30999946", "name": "Lake Worth ISD", "pop": 23571.5225, "rhh": 4029.8279 }, "geometry": { "type": "Point", "coordinates": [ -97.41298260984037, 32.8149629 ] } },
{ "type": "Feature", "properties": { "id": "9-30999947", "name": "Lancaster ISD", "pop": 44614.2181, "rhh": 5159.46 }, "geometry": { "type": "Point", "coordinates": [ -96.767478866882243, 32.5998892 ] } },
{ "type": "Feature", "properties": { "id": "9-30999948", "name": "Leonard ISD", "pop": 339.7851, "rhh": 14.5047 }, "geometry": { "type": "Point", "coordinates": [ -96.320530786599036, 33.3226349 ] } },
{ "type": "Feature", "properties": { "id": "9-30999949", "name": "Lewisville ISD", "pop": 322958.5246, "rhh": 48991.4535 }, "geometry": { "type": "Point", "coordinates": [ -96.985760056273705, 33.0550888 ] } },
{ "type": "Feature", "properties": { "id": "9-30999950", "name": "Little Elm ISD", "pop": 57494.8061, "rhh": 3975.0681 }, "geometry": { "type": "Point", "coordinates": [ -96.950756264131513, 33.1456818 ] } },
{ "type": "Feature", "properties": { "id": "9-30999951", "name": "Lovejoy ISD", "pop": 18222.7828, "rhh": 1197.2373 }, "geometry": { "type": "Point", "coordinates": [ -96.599668355058753, 33.1193373 ] } },
{ "type": "Feature", "properties": { "id": "9-30999952", "name": "Mansfield ISD", "pop": 182441.6446, "rhh": 11986.4374 }, "geometry": { "type": "Point", "coordinates": [ -97.150708594866487, 32.5853912 ] } },
{ "type": "Feature", "properties": { "id": "9-30999953", "name": "McKinney ISD", "pop": 147037.6274, "rhh": 16134.3784 }, "geometry": { "type": "Point", "coordinates": [ -96.605856807776519, 33.2201963 ] } },
{ "type": "Feature", "properties": { "id": "9-30999954", "name": "Melissa ISD", "pop": 11203.0625, "rhh": 414.6766 }, "geometry": { "type": "Point", "coordinates": [ -96.553822919361124, 33.2746073 ] } },
{ "type": "Feature", "properties": { "id": "9-30999955", "name": "Mesquite ISD", "pop": 176495.8408, "rhh": 21428.8313 }, "geometry": { "type": "Point", "coordinates": [ -96.587337872082216, 32.7582707 ] } },
{ "type": "Feature", "properties": { "id": "9-30999956", "name": "Midlothian ISD", "pop": 46350.3991, "rhh": 2761.3469 }, "geometry": { "type": "Point", "coordinates": [ -96.982528836693831, 32.4638247 ] } },
{ "type": "Feature", "properties": { "id": "9-30999957", "name": "Northwest ISD", "pop": 120554.8684, "rhh": 9129.7944 }, "geometry": { "type": "Point", "coordinates": [ -97.280205569609024, 33.0244518 ] } },
{ "type": "Feature", "properties": { "id": "9-30999958", "name": "Pilot Point ISD", "pop": 9824.2002, "rhh": 900.6636 }, "geometry": { "type": "Point", "coordinates": [ -96.935059475923737, 33.3548693 ] } },
{ "type": "Feature", "properties": { "id": "9-30999959", "name": "Plano ISD", "pop": 367276.3851, "rhh": 64314.9981 }, "geometry": { "type": "Point", "coordinates": [ -96.723022120950901, 33.0443598 ] } },
{ "type": "Feature", "properties": { "id": "9-30999960", "name": "Ponder ISD", "pop": 7740.6071, "rhh": 426.3592 }, "geometry": { "type": "Point", "coordinates": [ -97.311068937889701, 33.1816758 ] } },
{ "type": "Feature", "properties": { "id": "9-30999961", "name": "Princeton ISD", "pop": 21360.7122, "rhh": 1422.1827 }, "geometry": { "type": "Point", "coordinates": [ -96.492258326083117, 33.1397673 ] } },
{ "type": "Feature", "properties": { "id": "9-30999962", "name": "Prosper ISD", "pop": 66364.0086, "rhh": 2826.6237 }, "geometry": { "type": "Point", "coordinates": [ -96.775899464976732, 33.2387733 ] } },
{ "type": "Feature", "properties": { "id": "9-30999963", "name": "Red Oak ISD", "pop": 31712.0077, "rhh": 1766.2584 }, "geometry": { "type": "Point", "coordinates": [ -96.790103632179168, 32.4961367 ] } },
{ "type": "Feature", "properties": { "id": "9-30999964", "name": "Rockwall ISD", "pop": 91099.5669, "rhh": 5653.3091 }, "geometry": { "type": "Point", "coordinates": [ -96.433949212972323, 32.8966873 ] } },
{ "type": "Feature", "properties": { "id": "9-30999965", "name": "Royse City ISD", "pop": 25632.4611, "rhh": 952.2873 }, "geometry": { "type": "Point", "coordinates": [ -96.330612887349332, 32.9221248 ] } },
{ "type": "Feature", "properties": { "id": "9-30999966", "name": "Sanger ISD", "pop": 17087.7352, "rhh": 1393.0922 }, "geometry": { "type": "Point", "coordinates": [ -97.172296013189566, 33.3632228 ] } },
{ "type": "Feature", "properties": { "id": "9-30999967", "name": "Slidell ISD", "pop": 2311.9645, "rhh": 182.1201 }, "geometry": { "type": "Point", "coordinates": [ -97.36033126455834, 33.3550879 ] } },
{ "type": "Feature", "properties": { "id": "9-30999968", "name": "Sunnyvale ISD", "pop": 10493.1781, "rhh": 968.7342 }, "geometry": { "type": "Point", "coordinates": [ -96.549493885671311, 32.79363375 ] } },
{ "type": "Feature", "properties": { "id": "9-30999970", "name": "Trenton ISD", "pop": 74.0365, "rhh": 3.1605 }, "geometry": { "type": "Point", "coordinates": [ -96.393305327627019, 33.3856164 ] } },
{ "type": "Feature", "properties": { "id": "9-30999971", "name": "Van Alstyne ISD", "pop": 3351.6581, "rhh": 169.4561 }, "geometry": { "type": "Point", "coordinates": [ -96.58204593491422, 33.3892924 ] } },
{ "type": "Feature", "properties": { "id": "9-30999972", "name": "White Settlement ISD", "pop": 34884.5696, "rhh": 4401.0743 }, "geometry": { "type": "Point", "coordinates": [ -97.507779541025926, 32.7787673 ] } },
{ "type": "Feature", "properties": { "id": "9-30999973", "name": "Whitewright ISD", "pop": 70.0586, "rhh": 2.9906 }, "geometry": { "type": "Point", "coordinates": [ -96.416107222032593, 33.3901714 ] } },
{ "type": "Feature", "properties": { "id": "9-30999974", "name": "Wylie ISD (Collin)", "pop": 75603.8754, "rhh": 4824.9419 }, "geometry": { "type": "Point", "coordinates": [ -96.539331692098273, 33.0303538 ] } },
{ "type": "Feature", "properties": { "id": "9-30999991", "name": "Aledo ISD", "pop": 1396.6641, "rhh": 33.5394 }, "geometry": { "type": "Point", "coordinates": [ -97.538032469348181, 32.6483262 ] } },
{ "type": "Feature", "properties": { "id": "9-30999992", "name": "Allen ISD", "pop": 104107.2114, "rhh": 11812.5718 }, "geometry": { "type": "Point", "coordinates": [ -96.676731506976452, 33.1093703 ] } },
{ "type": "Feature", "properties": { "id": "9-30999993", "name": "Anna ISD", "pop": 26206.885, "rhh": 1293.9182 }, "geometry": { "type": "Point", "coordinates": [ -96.526299887072156, 33.3533154 ] } },
{ "type": "Feature", "properties": { "id": "9-30999994", "name": "Argyle ISD", "pop": 18025.2393, "rhh": 527.6635 }, "geometry": { "type": "Point", "coordinates": [ -97.182649108285432, 33.1017868 ] } },
{ "type": "Feature", "properties": { "id": "9-30999995", "name": "Arlington ISD", "pop": 352260.5239, "rhh": 65857.5051 }, "geometry": { "type": "Point", "coordinates": [ -97.106539050185816, 32.7210717 ] } },
{ "type": "Feature", "properties": { "id": "9-30999996", "name": "Aubrey ISD", "pop": 20018.6985, "rhh": 1671.2434 }, "geometry": { "type": "Point", "coordinates": [ -96.964605201397006, 33.2879153 ] } },
{ "type": "Feature", "properties": { "id": "9-30999997", "name": "Azle ISD", "pop": 25274.2693, "rhh": 2215.0047 }, "geometry": { "type": "Point", "coordinates": [ -97.521561461230618, 32.8968242 ] } },
{ "type": "Feature", "properties": { "id": "9-30999998", "name": "Birdville ISD", "pop": 142627.5571, "rhh": 19900.4348 }, "geometry": { "type": "Point", "coordinates": [ -97.242824201924037, 32.8348642 ] } },
{ "type": "Feature", "properties": { "id": "9-30999999", "name": "Bland ISD", "pop": 495.0278, "rhh": 28.7592 }, "geometry": { "type": "Point", "coordinates": [ -96.305046421780162, 33.2380668 ] } }
]
}
