{
"type": "FeatureCollection",
"name": "NTEP_bubble_highschool",
"crs": { "type": "name", "properties": { "name": "urn:ogc:def:crs:EPSG::4269" } },
"features": [
{ "type": "Feature", "properties": { "id": "03-disd-1", "name": "Adams", "pop": 67738.9572, "rhh": 10463.5053 }, "geometry": { "type": "Point", "coordinates": [ -96.689306809210194, 32.831802986133496 ] } },
{ "type": "Feature", "properties": { "id": "03-disd-12", "name": "Pinkston", "pop": 41255.6266, "rhh": 8366.3775 }, "geometry": { "type": "Point", "coordinates": [ -96.873268261504052, 32.76788179043875 ] } },
{ "type": "Feature", "properties": { "id": "03-disd-13", "name": "Roosevelt", "pop": 33618.8719, "rhh": 4725.9767 }, "geometry": { "type": "Point", "coordinates": [ -96.793237114490836, 32.730668647531047 ] } },
{ "type": "Feature", "properties": { "id": "03-disd-14", "name": "Samuell", "pop": 57285.0517, "rhh": 7561.3719 }, "geometry": { "type": "Point", "coordinates": [ -96.681043466812838, 32.745146997482948 ] } },
{ "type": "Feature", "properties": { "id": "03-disd-15", "name": "Seagoville", "pop": 41680.6515, "rhh": 3433.5362 }, "geometry": { "type": "Point", "coordinates": [ -96.575084156121022, 32.627720096172396 ] } },
{ "type": "Feature", "properties": { "id": "03-disd-16", "name": "SOC", "pop": 56067.2043, "rhh": 8806.4924 }, "geometry": { "type": "Point", "coordinates": [ -96.792768403283333, 32.68757329812825 ] } },
{ "type": "Feature", "properties": { "id": "03-disd-17", "name": "Spruce", "pop": 57791.2285, "rhh": 6542.2245 }, "geometry": { "type": "Point", "coordinates": [ -96.679179170220806, 32.708202662890898 ] } },
{ "type": "Feature", "properties": { "id": "03-disd-18", "name": "Sunset", "pop": 29694.9046, "rhh": 4209.2262 }, "geometry": { "type": "Point", "coordinates": [ -96.848415612709843, 32.749785275299701 ] } },
{ "type": "Feature", "properties": { "id": "03-disd-2", "name": "Adamson", "pop": 17764.5417, "rhh": 4265.2392 }, "geometry": { "type": "Point", "coordinates": [ -96.824253712307836, 32.743470241235748 ] } },
{ "type": "Feature", "properties": { "id": "03-disd-21", "name": "White", "pop": 96174.8631, "rhh": 23777.12 }, "geometry": { "type": "Point", "coordinates": [ -96.825178261174557, 32.927703175401547 ] } },
{ "type": "Feature", "properties": { "id": "03-disd-22", "name": "Wilson", "pop": 66581.1106, "rhh": 15602.9055 }, "geometry": { "type": "Point", "coordinates": [ -96.755526226312142, 32.818664527346755 ] } },
{ "type": "Feature", "properties": { "id": "03-disd-23", "name": "Carter", "pop": 51363.0271, "rhh": 10067.848 }, "geometry": { "type": "Point", "coordinates": [ -96.857200383976348, 32.661808895882601 ] } },
{ "type": "Feature", "properties": { "id": "03-disd-24", "name": "North Dallas", "pop": 112961.6937, "rhh": 53309.755 }, "geometry": { "type": "Point", "coordinates": [ -96.82922561236947, 32.811033450565105 ] } },
{ "type": "Feature", "properties": { "id": "03-disd-25", "name": "Skyline", "pop": 56875.8803, "rhh": 10348.8024 }, "geometry": { "type": "Point", "coordinates": [ -96.703420575336338, 32.791729889531354 ] } },
{ "type": "Feature", "properties": { "id": "03-disd-28", "name": "Conrad", "pop": 30851.1003, "rhh": 11424.2682 }, "geometry": { "type": "Point", "coordinates": [ -96.678701206303316, 32.871541064662054 ] } },
{ "type": "Feature", "properties": { "id": "03-disd-32", "name": "Madison", "pop": 23275.0889, "rhh": 6292.4478 }, "geometry": { "type": "Point", "coordinates": [ -96.783307531776416, 32.766177796888549 ] } },
{ "type": "Feature", "properties": { "id": "03-disd-380", "name": "Wilmer-Hutchins", "pop": 28773.0831, "rhh": 3380.0789 }, "geometry": { "type": "Point", "coordinates": [ -96.692722241209708, 32.626268487443753 ] } },
{ "type": "Feature", "properties": { "id": "03-disd-5", "name": "Molina", "pop": 29169.9111, "rhh": 3161.3256 }, "geometry": { "type": "Point", "coordinates": [ -96.91115204837908, 32.734188289333851 ] } },
{ "type": "Feature", "properties": { "id": "03-disd-6", "name": "Hillcrest", "pop": 79073.6222, "rhh": 26215.2386 }, "geometry": { "type": "Point", "coordinates": [ -96.792435922043438, 32.899027511896705 ] } },
{ "type": "Feature", "properties": { "id": "03-disd-7", "name": "Jefferson", "pop": 53828.0525, "rhh": 13440.7878 }, "geometry": { "type": "Point", "coordinates": [ -96.906168935070113, 32.87421187057835 ] } },
{ "type": "Feature", "properties": { "id": "03-disd-8", "name": "Kimball", "pop": 61819.9413, "rhh": 9605.7477 }, "geometry": { "type": "Point", "coordinates": [ -96.871772730392479, 32.702014956594653 ] } },
{ "type": "Feature", "properties": { "id": "03-disd-9", "name": "Lincoln", "pop": 11979.9307, "rhh": 2514.75 }, "geometry": { "type": "Point", "coordinates": [ -96.751562681076109, 32.745146997482948 ] } },
{ "type": "Feature", "properties": { "id": "03-risd-002", "name": "Lake Highlands", "pop": 73706.3891, "rhh": 19821.9795 }, "geometry": { "type": "Point", "coordinates": [ -96.726044382970173, 32.8928299284944 ] } },
{ "type": "Feature", "properties": { "id": "03-risd-003", "name": "Richardson", "pop": 35644.4997, "rhh": 6072.1433 }, "geometry": { "type": "Point", "coordinates": [ -96.786821547746769, 32.932056499025194 ] } },
{ "type": "Feature", "properties": { "id": "03-risd-004", "name": "Pearce", "pop": 40318.3811, "rhh": 7434.0123 }, "geometry": { "type": "Point", "coordinates": [ -96.743285413047616, 32.972982601084098 ] } },
{ "type": "Feature", "properties": { "id": "03-risd-004/003", "name": "Pearce/Richardson", "pop": 11670.0076, "rhh": 1114.4205 }, "geometry": { "type": "Point", "coordinates": [ -96.777387726950764, 32.968135523311147 ] } },
{ "type": "Feature", "properties": { "id": "03-risd-005", "name": "Berkner", "pop": 68341.1437, "rhh": 13653.9007 }, "geometry": { "type": "Point", "coordinates": [ -96.712765318029028, 32.942558328682097 ] } },
{ "type": "Feature", "properties": { "id": "09-ntx-001", "name": "Aledo ISD", "pop": 1396.6535, "rhh": 33.5392 }, "geometry": { "type": "Point", "coordinates": [ -97.538032469565309, 32.648326180700749 ] } },
{ "type": "Feature", "properties": { "id": "09-ntx-002", "name": "Allen ISD", "pop": 104107.2629, "rhh": 11812.5881 }, "geometry": { "type": "Point", "coordinates": [ -96.676731520880395, 33.109370304464505 ] } },
{ "type": "Feature", "properties": { "id": "09-ntx-003", "name": "Anna ISD", "pop": 26206.8802, "rhh": 1293.9176 }, "geometry": { "type": "Point", "coordinates": [ -96.526299876745497, 33.353315352375404 ] } },
{ "type": "Feature", "properties": { "id": "09-ntx-004", "name": "Argyle ISD", "pop": 18025.2569, "rhh": 527.6631 }, "geometry": { "type": "Point", "coordinates": [ -97.182649100022786, 33.101786780774852 ] } },
{ "type": "Feature", "properties": { "id": "09-ntx-005", "name": "Arlington ISD", "pop": 352260.6301, "rhh": 65857.5239 }, "geometry": { "type": "Point", "coordinates": [ -97.106539049725484, 32.721071709837148 ] } },
{ "type": "Feature", "properties": { "id": "09-ntx-006", "name": "Aubrey ISD", "pop": 20018.7052, "rhh": 1671.244 }, "geometry": { "type": "Point", "coordinates": [ -96.964605203530169, 33.287915325905551 ] } },
{ "type": "Feature", "properties": { "id": "09-ntx-007", "name": "Azle ISD", "pop": 25274.2796, "rhh": 2215.0052 }, "geometry": { "type": "Point", "coordinates": [ -97.521561465182103, 32.896824229044249 ] } },
{ "type": "Feature", "properties": { "id": "09-ntx-008", "name": "Birdville ISD", "pop": 142627.5508, "rhh": 19900.4249 }, "geometry": { "type": "Point", "coordinates": [ -97.242824192251177, 32.834864227939903 ] } },
{ "type": "Feature", "properties": { "id": "09-ntx-009", "name": "Bland ISD", "pop": 495.0252, "rhh": 28.759 }, "geometry": { "type": "Point", "coordinates": [ -96.305046436823503, 33.238066844888351 ] } },
{ "type": "Feature", "properties": { "id": "09-ntx-010", "name": "Blue Ridge ISD", "pop": 3498.7638, "rhh": 132.6232 }, "geometry": { "type": "Point", "coordinates": [ -96.401719535161874, 33.309356351350445 ] } },
{ "type": "Feature", "properties": { "id": "09-ntx-011", "name": "Burleson ISD", "pop": 18217.4819, "rhh": 1314.1999 }, "geometry": { "type": "Point", "coordinates": [ -97.291436547233005, 32.579274177279551 ] } },
{ "type": "Feature", "properties": { "id": "09-ntx-012", "name": "Caddo Mills ISD", "pop": 0.0239, "rhh": 0.0006 }, "geometry": { "type": "Point", "coordinates": [ -96.296171822083778, 33.098946089134827 ] } },
{ "type": "Feature", "properties": { "id": "09-ntx-013", "name": "Carroll ISD", "pop": 31821.718, "rhh": 651.0404 }, "geometry": { "type": "Point", "coordinates": [ -97.142482252817999, 32.950024254081598 ] } },
{ "type": "Feature", "properties": { "id": "09-ntx-014", "name": "Carrollton-Farmers Branch ISD", "pop": 184878.8446, "rhh": 46578.8477 }, "geometry": { "type": "Point", "coordinates": [ -96.905674244214637, 32.944182261178454 ] } },
{ "type": "Feature", "properties": { "id": "09-ntx-015", "name": "Castleberry ISD", "pop": 17609.5869, "rhh": 2385.0391 }, "geometry": { "type": "Point", "coordinates": [ -97.391193794313338, 32.781813212202152 ] } },
{ "type": "Feature", "properties": { "id": "09-ntx-016", "name": "Cedar Hill ISD", "pop": 51429.7223, "rhh": 4930.4637 }, "geometry": { "type": "Point", "coordinates": [ -96.973095670597786, 32.594624697555645 ] } },
{ "type": "Feature", "properties": { "id": "09-ntx-017", "name": "Celeste ISD", "pop": 0.0393, "rhh": 0.0017 }, "geometry": { "type": "Point", "coordinates": [ -96.295334132827335, 33.303886857578192 ] } },
{ "type": "Feature", "properties": { "id": "09-ntx-018", "name": "Celina ISD", "pop": 27447.2006, "rhh": 662.2335 }, "geometry": { "type": "Point", "coordinates": [ -96.749008273660678, 33.33855333969835 ] } },
{ "type": "Feature", "properties": { "id": "09-ntx-019", "name": "Community ISD", "pop": 15078.745, "rhh": 347.3644 }, "geometry": { "type": "Point", "coordinates": [ -96.385961252097673, 33.040793300245596 ] } },
{ "type": "Feature", "properties": { "id": "09-ntx-020", "name": "Coppell ISD", "pop": 56888.5176, "rhh": 6898.1062 }, "geometry": { "type": "Point", "coordinates": [ -96.986844883312543, 32.938526759015652 ] } },
{ "type": "Feature", "properties": { "id": "09-ntx-021", "name": "Crandall ISD", "pop": 4.4906, "rhh": 0.154 }, "geometry": { "type": "Point", "coordinates": [ -96.52295138720001, 32.5610257075571 ] } },
{ "type": "Feature", "properties": { "id": "09-ntx-022", "name": "Crowley ISD", "pop": 113374.8838, "rhh": 15144.3656 }, "geometry": { "type": "Point", "coordinates": [ -97.39978987718689, 32.6203041787373 ] } },
{ "type": "Feature", "properties": { "id": "09-ntx-023", "name": "Denton ISD", "pop": 218471.2591, "rhh": 30835.6256 }, "geometry": { "type": "Point", "coordinates": [ -97.092865083449155, 33.196973308215604 ] } },
{ "type": "Feature", "properties": { "id": "09-ntx-024", "name": "DeSoto ISD", "pop": 61568.1636, "rhh": 4964.9961 }, "geometry": { "type": "Point", "coordinates": [ -96.865253561318269, 32.584050197122096 ] } },
{ "type": "Feature", "properties": { "id": "09-ntx-025", "name": "Duncanville ISD", "pop": 76689.9379, "rhh": 10902.8023 }, "geometry": { "type": "Point", "coordinates": [ -96.93965750048045, 32.65510470758425 ] } },
{ "type": "Feature", "properties": { "id": "09-ntx-026", "name": "Eagle Mountain-Saginaw ISD", "pop": 119774.4707, "rhh": 11211.9072 }, "geometry": { "type": "Point", "coordinates": [ -97.413121527024686, 32.907436231009797 ] } },
{ "type": "Feature", "properties": { "id": "09-ntx-027", "name": "Era ISD", "pop": 133.5253, "rhh": 12.3241 }, "geometry": { "type": "Point", "coordinates": [ -97.323617191010371, 33.417606832843447 ] } },
{ "type": "Feature", "properties": { "id": "09-ntx-028", "name": "Everman ISD", "pop": 27229.2861, "rhh": 2884.4224 }, "geometry": { "type": "Point", "coordinates": [ -97.274135247491387, 32.629240186244502 ] } },
{ "type": "Feature", "properties": { "id": "09-ntx-029", "name": "Farmersville ISD", "pop": 11223.0223, "rhh": 580.9232 }, "geometry": { "type": "Point", "coordinates": [ -96.359940586863331, 33.164357825813198 ] } },
{ "type": "Feature", "properties": { "id": "09-ntx-030", "name": "Ferris ISD", "pop": 451.9469, "rhh": 49.7433 }, "geometry": { "type": "Point", "coordinates": [ -96.658745602375916, 32.559419199828653 ] } },
{ "type": "Feature", "properties": { "id": "09-ntx-031", "name": "Forney ISD", "pop": 6.3554, "rhh": 0.2588 }, "geometry": { "type": "Point", "coordinates": [ -96.521249729262436, 32.665015727037897 ] } },
{ "type": "Feature", "properties": { "id": "09-ntx-032", "name": "Fort Worth ISD", "pop": 523007.0992, "rhh": 90688.5511 }, "geometry": { "type": "Point", "coordinates": [ -97.367913663301323, 32.729409210892953 ] } },
{ "type": "Feature", "properties": { "id": "09-ntx-033", "name": "Frisco ISD", "pop": 272900.0708, "rhh": 35438.1218 }, "geometry": { "type": "Point", "coordinates": [ -96.79848373817515, 33.149572311258552 ] } },
{ "type": "Feature", "properties": { "id": "09-ntx-034", "name": "Garland ISD", "pop": 312686.9854, "rhh": 35338.2438 }, "geometry": { "type": "Point", "coordinates": [ -96.609316923673759, 32.906500765627399 ] } },
{ "type": "Feature", "properties": { "id": "09-ntx-035", "name": "Godley ISD", "pop": 1430.1788, "rhh": 175.2853 }, "geometry": { "type": "Point", "coordinates": [ -97.510721347648115, 32.577535668610494 ] } },
{ "type": "Feature", "properties": { "id": "09-ntx-036", "name": "Grand Prairie ISD", "pop": 129608.298, "rhh": 16466.4454 }, "geometry": { "type": "Point", "coordinates": [ -96.983325413487023, 32.728749721830951 ] } },
{ "type": "Feature", "properties": { "id": "09-ntx-037", "name": "Grapevine-Colleyville ISD", "pop": 84433.8254, "rhh": 13260.6072 }, "geometry": { "type": "Point", "coordinates": [ -97.099916072182538, 32.908054248343205 ] } },
{ "type": "Feature", "properties": { "id": "09-ntx-038", "name": "Highland Park ISD (Dallas)", "pop": 34976.7608, "rhh": 1960.8049 }, "geometry": { "type": "Point", "coordinates": [ -96.794691792831742, 32.842291249121146 ] } },
{ "type": "Feature", "properties": { "id": "09-ntx-039", "name": "Hurst-Euless-Bedford ISD", "pop": 161863.2003, "rhh": 33951.6307 }, "geometry": { "type": "Point", "coordinates": [ -97.118913584276598, 32.822430227410599 ] } },
{ "type": "Feature", "properties": { "id": "09-ntx-040", "name": "Irving ISD", "pop": 188735.4563, "rhh": 39297.5003 }, "geometry": { "type": "Point", "coordinates": [ -96.960758465014266, 32.832698740239906 ] } },
{ "type": "Feature", "properties": { "id": "09-ntx-041", "name": "Joshua ISD", "pop": 0.0646, "rhh": 0.0054 }, "geometry": { "type": "Point", "coordinates": [ -97.470195689297668, 32.554979496142963 ] } },
{ "type": "Feature", "properties": { "id": "09-ntx-042", "name": "Keller ISD", "pop": 175803.8342, "rhh": 16863.9123 }, "geometry": { "type": "Point", "coordinates": [ -97.254865266210487, 32.92075274714265 ] } },
{ "type": "Feature", "properties": { "id": "09-ntx-043", "name": "Kennedale ISD", "pop": 20809.5108, "rhh": 2511.1206 }, "geometry": { "type": "Point", "coordinates": [ -97.207522604247714, 32.642663831622258 ] } },
{ "type": "Feature", "properties": { "id": "09-ntx-044", "name": "Krum ISD", "pop": 8581.4101, "rhh": 428.6713 }, "geometry": { "type": "Point", "coordinates": [ -97.289220975113238, 33.273700823061176 ] } },
{ "type": "Feature", "properties": { "id": "09-ntx-045", "name": "Lake Dallas ISD", "pop": 21322.5564, "rhh": 1981.5431 }, "geometry": { "type": "Point", "coordinates": [ -97.037701108753126, 33.122146789275305 ] } },
{ "type": "Feature", "properties": { "id": "09-ntx-046", "name": "Lake Worth ISD", "pop": 23571.5147, "rhh": 4029.8267 }, "geometry": { "type": "Point", "coordinates": [ -97.412982631681786, 32.814962899509297 ] } },
{ "type": "Feature", "properties": { "id": "09-ntx-047", "name": "Lancaster ISD", "pop": 44613.9894, "rhh": 5159.4487 }, "geometry": { "type": "Point", "coordinates": [ -96.767478872744903, 32.5998892022848 ] } },
{ "type": "Feature", "properties": { "id": "09-ntx-048", "name": "Leonard ISD", "pop": 339.786, "rhh": 14.5047 }, "geometry": { "type": "Point", "coordinates": [ -96.3205308081167, 33.322634859475102 ] } },
{ "type": "Feature", "properties": { "id": "09-ntx-049", "name": "Lewisville ISD", "pop": 322958.6716, "rhh": 48991.4872 }, "geometry": { "type": "Point", "coordinates": [ -96.985760045290476, 33.055088781013495 ] } },
{ "type": "Feature", "properties": { "id": "09-ntx-050", "name": "Little Elm ISD", "pop": 57494.8349, "rhh": 3975.0706 }, "geometry": { "type": "Point", "coordinates": [ -96.950756249540319, 33.145681801599352 ] } },
{ "type": "Feature", "properties": { "id": "09-ntx-051", "name": "Lovejoy ISD", "pop": 18222.7897, "rhh": 1197.2371 }, "geometry": { "type": "Point", "coordinates": [ -96.599668349862355, 33.119337310209801 ] } },
{ "type": "Feature", "properties": { "id": "09-ntx-052", "name": "Mansfield ISD", "pop": 173752.9722, "rhh": 11728.2703 }, "geometry": { "type": "Point", "coordinates": [ -97.136046213429466, 32.607830690094602 ] } },
{ "type": "Feature", "properties": { "id": "09-ntx-053", "name": "McKinney ISD", "pop": 147037.6098, "rhh": 16134.3816 }, "geometry": { "type": "Point", "coordinates": [ -96.605856810830062, 33.220196323039545 ] } },
{ "type": "Feature", "properties": { "id": "09-ntx-054", "name": "Melissa ISD", "pop": 11203.0522, "rhh": 414.6762 }, "geometry": { "type": "Point", "coordinates": [ -96.553822915186842, 33.274607341352102 ] } },
{ "type": "Feature", "properties": { "id": "09-ntx-055", "name": "Mesquite ISD", "pop": 176493.7099, "rhh": 21428.7492 }, "geometry": { "type": "Point", "coordinates": [ -96.587340248833456, 32.758270739246448 ] } },
{ "type": "Feature", "properties": { "id": "09-ntx-056", "name": "Midlothian ISD", "pop": 10.0361, "rhh": 0.2636 }, "geometry": { "type": "Point", "coordinates": [ -96.989699158975242, 32.548190842228053 ] } },
{ "type": "Feature", "properties": { "id": "09-ntx-057", "name": "Northwest ISD", "pop": 120554.8557, "rhh": 9129.8006 }, "geometry": { "type": "Point", "coordinates": [ -97.28020558590751, 33.024451767308406 ] } },
{ "type": "Feature", "properties": { "id": "09-ntx-058", "name": "Pilot Point ISD", "pop": 9824.215, "rhh": 900.6643 }, "geometry": { "type": "Point", "coordinates": [ -96.93505947135435, 33.354869339516995 ] } },
{ "type": "Feature", "properties": { "id": "09-ntx-059", "name": "Plano ISD", "pop": 367276.4693, "rhh": 64315.0212 }, "geometry": { "type": "Point", "coordinates": [ -96.723022092631638, 33.044359796122706 ] } },
{ "type": "Feature", "properties": { "id": "09-ntx-060", "name": "Ponder ISD", "pop": 7740.6482, "rhh": 426.3613 }, "geometry": { "type": "Point", "coordinates": [ -97.311068863905277, 33.181675793368051 ] } },
{ "type": "Feature", "properties": { "id": "09-ntx-061", "name": "Princeton ISD", "pop": 21360.6869, "rhh": 1422.1813 }, "geometry": { "type": "Point", "coordinates": [ -96.492258297065405, 33.139767317017998 ] } },
{ "type": "Feature", "properties": { "id": "09-ntx-062", "name": "Prosper ISD", "pop": 66363.8948, "rhh": 2826.6187 }, "geometry": { "type": "Point", "coordinates": [ -96.775899462085277, 33.238773324388397 ] } },
{ "type": "Feature", "properties": { "id": "09-ntx-063", "name": "Red Oak ISD", "pop": 4.1209, "rhh": 0.2018 }, "geometry": { "type": "Point", "coordinates": [ -96.76244023994721, 32.546803847309803 ] } },
{ "type": "Feature", "properties": { "id": "09-ntx-064", "name": "Rockwall ISD", "pop": 17.7698, "rhh": 1.6351 }, "geometry": { "type": "Point", "coordinates": [ -96.432314629563294, 32.983161588775587 ] } },
{ "type": "Feature", "properties": { "id": "09-ntx-065", "name": "Royse City ISD", "pop": 2450.0809, "rhh": 93.9006 }, "geometry": { "type": "Point", "coordinates": [ -96.315300563873848, 33.004285799212099 ] } },
{ "type": "Feature", "properties": { "id": "09-ntx-066", "name": "Sanger ISD", "pop": 17087.7443, "rhh": 1393.0929 }, "geometry": { "type": "Point", "coordinates": [ -97.172296018752476, 33.3632228360486 ] } },
{ "type": "Feature", "properties": { "id": "09-ntx-067", "name": "Slidell ISD", "pop": 2311.97, "rhh": 182.1202 }, "geometry": { "type": "Point", "coordinates": [ -97.360331262553743, 33.355087910780348 ] } },
{ "type": "Feature", "properties": { "id": "09-ntx-068", "name": "Sunnyvale ISD", "pop": 10491.8847, "rhh": 968.672 }, "geometry": { "type": "Point", "coordinates": [ -96.549473638858444, 32.794525997097338 ] } },
{ "type": "Feature", "properties": { "id": "09-ntx-069", "name": "Tioga ISD", "pop": 0.1034, "rhh": 0.0032 }, "geometry": { "type": "Point", "coordinates": [ -96.853455333732839, 33.413621099831779 ] } },
{ "type": "Feature", "properties": { "id": "09-ntx-070", "name": "Trenton ISD", "pop": 74.0375, "rhh": 3.1605 }, "geometry": { "type": "Point", "coordinates": [ -96.393305308085047, 33.385616368367195 ] } },
{ "type": "Feature", "properties": { "id": "09-ntx-071", "name": "Van Alstyne ISD", "pop": 3351.6734, "rhh": 169.4568 }, "geometry": { "type": "Point", "coordinates": [ -96.582045941138944, 33.389292364411901 ] } },
{ "type": "Feature", "properties": { "id": "09-ntx-072", "name": "White Settlement ISD", "pop": 34884.5633, "rhh": 4401.0751 }, "geometry": { "type": "Point", "coordinates": [ -97.5077795454864, 32.778767293587805 ] } },
{ "type": "Feature", "properties": { "id": "09-ntx-073", "name": "Whitewright ISD", "pop": 70.06, "rhh": 2.9907 }, "geometry": { "type": "Point", "coordinates": [ -96.416106962862571, 33.3901928680529 ] } },
{ "type": "Feature", "properties": { "id": "09-ntx-074", "name": "Wylie ISD (Collin)", "pop": 75603.5385, "rhh": 4824.9353 }, "geometry": { "type": "Point", "coordinates": [ -96.539331663393128, 33.030353795318952 ] } }
]
}
