{
"type": "FeatureCollection",
"name": "NTEP_bubble_highschool",
"crs": { "type": "name", "properties": { "name": "urn:ogc:def:crs:EPSG::4269" } },
"features": [
{ "type": "Feature", "properties": { "id": "3-001", "name": "Adams", "pop": 70389.8208, "rhh": 11127.048 }, "geometry": { "type": "Point", "coordinates": [ -96.68929930935137, 32.831797233331748 ] } },
{ "type": "Feature", "properties": { "id": "3-002", "name": "Adamson", "pop": 18419.845, "rhh": 4317.9086 }, "geometry": { "type": "Point", "coordinates": [ -96.824250039610746, 32.744294086929287 ] } },
{ "type": "Feature", "properties": { "id": "3-005", "name": "Molina", "pop": 29858.5923, "rhh": 3262.849 }, "geometry": { "type": "Point", "coordinates": [ -96.911147269991659, 32.734182565253874 ] } },
{ "type": "Feature", "properties": { "id": "3-006", "name": "Hillcrest", "pop": 77863.5871, "rhh": 25224.2511 }, "geometry": { "type": "Point", "coordinates": [ -96.792446432364557, 32.899004752467434 ] } },
{ "type": "Feature", "properties": { "id": "3-007", "name": "Jefferson", "pop": 53888.6748, "rhh": 13070.3238 }, "geometry": { "type": "Point", "coordinates": [ -96.90616465329947, 32.874206120044946 ] } },
{ "type": "Feature", "properties": { "id": "3-008", "name": "Kimball", "pop": 61836.5577, "rhh": 9965.6511 }, "geometry": { "type": "Point", "coordinates": [ -96.8718656536319, 32.701812663547713 ] } },
{ "type": "Feature", "properties": { "id": "3-009", "name": "Lincoln", "pop": 11277.1999, "rhh": 2470.9047 }, "geometry": { "type": "Point", "coordinates": [ -96.751610680451051, 32.745251883771857 ] } },
{ "type": "Feature", "properties": { "id": "3-012", "name": "Pinkston", "pop": 39807.2452, "rhh": 7994.5682 }, "geometry": { "type": "Point", "coordinates": [ -96.873260710664766, 32.767876058567637 ] } },
{ "type": "Feature", "properties": { "id": "3-013", "name": "Roosevelt", "pop": 33466.1752, "rhh": 4946.0459 }, "geometry": { "type": "Point", "coordinates": [ -96.793158585883418, 32.730843710693506 ] } },
{ "type": "Feature", "properties": { "id": "3-014", "name": "Samuell", "pop": 57583.3477, "rhh": 7468.2362 }, "geometry": { "type": "Point", "coordinates": [ -96.681032203581879, 32.745251883771857 ] } },
{ "type": "Feature", "properties": { "id": "3-015", "name": "Seagoville", "pop": 40902.6144, "rhh": 3553.025 }, "geometry": { "type": "Point", "coordinates": [ -96.575080462140164, 32.627714380404399 ] } },
{ "type": "Feature", "properties": { "id": "3-016", "name": "SOC", "pop": 55650.1754, "rhh": 9768.6954 }, "geometry": { "type": "Point", "coordinates": [ -96.792638577191525, 32.687435596836302 ] } },
{ "type": "Feature", "properties": { "id": "3-017", "name": "Spruce", "pop": 58075.5832, "rhh": 6564.1243 }, "geometry": { "type": "Point", "coordinates": [ -96.67917225687404, 32.708196934086004 ] } },
{ "type": "Feature", "properties": { "id": "3-018", "name": "Sunset", "pop": 30354.8882, "rhh": 4166.2223 }, "geometry": { "type": "Point", "coordinates": [ -96.848408000159537, 32.749728726464319 ] } },
{ "type": "Feature", "properties": { "id": "3-021", "name": "White", "pop": 94984.153, "rhh": 23627.8592 }, "geometry": { "type": "Point", "coordinates": [ -96.82515581741896, 32.927520226517146 ] } },
{ "type": "Feature", "properties": { "id": "3-022", "name": "Wilson", "pop": 62672.3022, "rhh": 14451.0502 }, "geometry": { "type": "Point", "coordinates": [ -96.75470005778034, 32.820842326188519 ] } },
{ "type": "Feature", "properties": { "id": "3-023", "name": "Carter", "pop": 51421.9382, "rhh": 10389.1346 }, "geometry": { "type": "Point", "coordinates": [ -96.857199227385905, 32.664223739081713 ] } },
{ "type": "Feature", "properties": { "id": "3-024", "name": "North Dallas", "pop": 111361.0666, "rhh": 51454.0638 }, "geometry": { "type": "Point", "coordinates": [ -96.82921807792863, 32.811027706777054 ] } },
{ "type": "Feature", "properties": { "id": "3-025", "name": "Skyline", "pop": 57313.3696, "rhh": 10424.9303 }, "geometry": { "type": "Point", "coordinates": [ -96.703411338125449, 32.791724147188674 ] } },
{ "type": "Feature", "properties": { "id": "3-028", "name": "Conrad", "pop": 30436.252, "rhh": 11407.049 }, "geometry": { "type": "Point", "coordinates": [ -96.678685399711071, 32.872061865107568 ] } },
{ "type": "Feature", "properties": { "id": "3-032", "name": "Madison", "pop": 28000.3871, "rhh": 6555.3945 }, "geometry": { "type": "Point", "coordinates": [ -96.764194683606874, 32.772200866309618 ] } },
{ "type": "Feature", "properties": { "id": "3-380", "name": "Wilmer-Hutchins", "pop": 27595.4614, "rhh": 3355.5854 }, "geometry": { "type": "Point", "coordinates": [ -96.692695140216784, 32.626236244596555 ] } }
]
}
