{
"type": "FeatureCollection",
"name": "NTEP_bubble_highschool",
"crs": { "type": "name", "properties": { "name": "urn:ogc:def:crs:EPSG::4269" } },
"features": [
{ "type": "Feature", "properties": { "id": "disd-03-1", "name": "Adams", "pop": 67738.962, "rhh": 10463.5056 }, "geometry": { "type": "Point", "coordinates": [ -96.689306809210194, 32.831802986133496 ] } },
{ "type": "Feature", "properties": { "id": "disd-03-12", "name": "Pinkston", "pop": 41255.6501, "rhh": 8366.3841 }, "geometry": { "type": "Point", "coordinates": [ -96.873268261504023, 32.76788179043875 ] } },
{ "type": "Feature", "properties": { "id": "disd-03-13", "name": "Roosevelt", "pop": 33618.864, "rhh": 4725.9724 }, "geometry": { "type": "Point", "coordinates": [ -96.793237114490836, 32.730668647531061 ] } },
{ "type": "Feature", "properties": { "id": "disd-03-14", "name": "Samuell", "pop": 57285.0462, "rhh": 7561.3718 }, "geometry": { "type": "Point", "coordinates": [ -96.681043466812838, 32.745146997482948 ] } },
{ "type": "Feature", "properties": { "id": "disd-03-15", "name": "Seagoville", "pop": 41680.6667, "rhh": 3433.5372 }, "geometry": { "type": "Point", "coordinates": [ -96.575084156121022, 32.627720096172396 ] } },
{ "type": "Feature", "properties": { "id": "disd-03-16", "name": "SOC", "pop": 56067.2216, "rhh": 8806.4972 }, "geometry": { "type": "Point", "coordinates": [ -96.792768403283333, 32.68757329812825 ] } },
{ "type": "Feature", "properties": { "id": "disd-03-17", "name": "Spruce", "pop": 57791.2355, "rhh": 6542.2254 }, "geometry": { "type": "Point", "coordinates": [ -96.679179170220806, 32.708202662890898 ] } },
{ "type": "Feature", "properties": { "id": "disd-03-18", "name": "Sunset", "pop": 29694.9011, "rhh": 4209.2234 }, "geometry": { "type": "Point", "coordinates": [ -96.848415612709843, 32.749785275299701 ] } },
{ "type": "Feature", "properties": { "id": "disd-03-2", "name": "Adamson", "pop": 17764.5434, "rhh": 4265.2383 }, "geometry": { "type": "Point", "coordinates": [ -96.824253712307865, 32.743470241235755 ] } },
{ "type": "Feature", "properties": { "id": "disd-03-21", "name": "White", "pop": 96174.8554, "rhh": 23777.1186 }, "geometry": { "type": "Point", "coordinates": [ -96.825178261174557, 32.927703175401547 ] } },
{ "type": "Feature", "properties": { "id": "disd-03-22", "name": "Wilson", "pop": 66581.1127, "rhh": 15602.9104 }, "geometry": { "type": "Point", "coordinates": [ -96.755526226312142, 32.818664527346741 ] } },
{ "type": "Feature", "properties": { "id": "disd-03-23", "name": "Carter", "pop": 51363.0345, "rhh": 10067.8505 }, "geometry": { "type": "Point", "coordinates": [ -96.857200383976348, 32.661808895882601 ] } },
{ "type": "Feature", "properties": { "id": "disd-03-24", "name": "North Dallas", "pop": 112961.7194, "rhh": 53309.7619 }, "geometry": { "type": "Point", "coordinates": [ -96.82922561236947, 32.811033450565105 ] } },
{ "type": "Feature", "properties": { "id": "disd-03-25", "name": "Skyline", "pop": 56875.8793, "rhh": 10348.8027 }, "geometry": { "type": "Point", "coordinates": [ -96.70342057533631, 32.791729889531339 ] } },
{ "type": "Feature", "properties": { "id": "disd-03-28", "name": "Conrad", "pop": 30851.1086, "rhh": 11424.2715 }, "geometry": { "type": "Point", "coordinates": [ -96.678701206231068, 32.871541064596649 ] } },
{ "type": "Feature", "properties": { "id": "disd-03-32", "name": "Madison", "pop": 23275.079, "rhh": 6292.4501 }, "geometry": { "type": "Point", "coordinates": [ -96.783307531776416, 32.766177796888549 ] } },
{ "type": "Feature", "properties": { "id": "disd-03-380", "name": "Wilmer-Hutchins", "pop": 28773.0638, "rhh": 3380.0791 }, "geometry": { "type": "Point", "coordinates": [ -96.692722241209708, 32.626268487443753 ] } },
{ "type": "Feature", "properties": { "id": "disd-03-5", "name": "Molina", "pop": 29169.9142, "rhh": 3161.3263 }, "geometry": { "type": "Point", "coordinates": [ -96.91115204837908, 32.734188289333851 ] } },
{ "type": "Feature", "properties": { "id": "disd-03-6", "name": "Hillcrest", "pop": 79073.6189, "rhh": 26215.2374 }, "geometry": { "type": "Point", "coordinates": [ -96.792435922043438, 32.899027511896705 ] } },
{ "type": "Feature", "properties": { "id": "disd-03-7", "name": "Jefferson", "pop": 53828.0569, "rhh": 13440.7897 }, "geometry": { "type": "Point", "coordinates": [ -96.906168935070113, 32.87421187057835 ] } },
{ "type": "Feature", "properties": { "id": "disd-03-8", "name": "Kimball", "pop": 61819.9268, "rhh": 9605.7453 }, "geometry": { "type": "Point", "coordinates": [ -96.871772730392493, 32.702014956594653 ] } },
{ "type": "Feature", "properties": { "id": "disd-03-9", "name": "Lincoln", "pop": 11979.9355, "rhh": 2514.7509 }, "geometry": { "type": "Point", "coordinates": [ -96.751562681076109, 32.745146997482948 ] } },
{ "type": "Feature", "properties": { "id": "ntx-09-001", "name": "Aledo ISD", "pop": 1396.6641, "rhh": 33.5394 }, "geometry": { "type": "Point", "coordinates": [ -97.538032469348181, 32.6483262 ] } },
{ "type": "Feature", "properties": { "id": "ntx-09-002", "name": "Allen ISD", "pop": 104107.2114, "rhh": 11812.5718 }, "geometry": { "type": "Point", "coordinates": [ -96.676731506976452, 33.1093703 ] } },
{ "type": "Feature", "properties": { "id": "ntx-09-003", "name": "Anna ISD", "pop": 26206.885, "rhh": 1293.9182 }, "geometry": { "type": "Point", "coordinates": [ -96.526299887072156, 33.3533154 ] } },
{ "type": "Feature", "properties": { "id": "ntx-09-004", "name": "Argyle ISD", "pop": 18025.2393, "rhh": 527.6635 }, "geometry": { "type": "Point", "coordinates": [ -97.182649108285432, 33.1017868 ] } },
{ "type": "Feature", "properties": { "id": "ntx-09-005", "name": "Arlington ISD", "pop": 352260.5239, "rhh": 65857.5051 }, "geometry": { "type": "Point", "coordinates": [ -97.106539050185816, 32.7210717 ] } },
{ "type": "Feature", "properties": { "id": "ntx-09-006", "name": "Aubrey ISD", "pop": 20018.6985, "rhh": 1671.2434 }, "geometry": { "type": "Point", "coordinates": [ -96.964605201397006, 33.2879153 ] } },
{ "type": "Feature", "properties": { "id": "ntx-09-007", "name": "Azle ISD", "pop": 25274.2693, "rhh": 2215.0047 }, "geometry": { "type": "Point", "coordinates": [ -97.521561461230618, 32.8968242 ] } },
{ "type": "Feature", "properties": { "id": "ntx-09-008", "name": "Birdville ISD", "pop": 142627.5571, "rhh": 19900.4348 }, "geometry": { "type": "Point", "coordinates": [ -97.242824201924037, 32.8348642 ] } },
{ "type": "Feature", "properties": { "id": "ntx-09-009", "name": "Bland ISD", "pop": 495.0278, "rhh": 28.7592 }, "geometry": { "type": "Point", "coordinates": [ -96.305046421780162, 33.2380668 ] } },
{ "type": "Feature", "properties": { "id": "ntx-09-010", "name": "Blue Ridge ISD", "pop": 3498.7615, "rhh": 132.6231 }, "geometry": { "type": "Point", "coordinates": [ -96.401719528473279, 33.3093564 ] } },
{ "type": "Feature", "properties": { "id": "ntx-09-011", "name": "Burleson ISD", "pop": 18217.4982, "rhh": 1314.2009 }, "geometry": { "type": "Point", "coordinates": [ -97.291436510085589, 32.5792742 ] } },
{ "type": "Feature", "properties": { "id": "ntx-09-012", "name": "Caddo Mills ISD", "pop": 0.0239, "rhh": 0.0006 }, "geometry": { "type": "Point", "coordinates": [ -96.296171818208791, 33.098946070113371 ] } },
{ "type": "Feature", "properties": { "id": "ntx-09-013", "name": "Carroll ISD", "pop": 31821.754, "rhh": 651.0405 }, "geometry": { "type": "Point", "coordinates": [ -97.142482231036212, 32.9500243 ] } },
{ "type": "Feature", "properties": { "id": "ntx-09-014", "name": "Carrollton-Farmers Branch ISD", "pop": 184878.9508, "rhh": 46578.8745 }, "geometry": { "type": "Point", "coordinates": [ -96.905674232086682, 32.9441823 ] } },
{ "type": "Feature", "properties": { "id": "ntx-09-015", "name": "Castleberry ISD", "pop": 17609.5765, "rhh": 2385.037 }, "geometry": { "type": "Point", "coordinates": [ -97.391193819982846, 32.7818132 ] } },
{ "type": "Feature", "properties": { "id": "ntx-09-016", "name": "Cedar Hill ISD", "pop": 51429.7708, "rhh": 4930.4669 }, "geometry": { "type": "Point", "coordinates": [ -96.973095662663965, 32.5946247 ] } },
{ "type": "Feature", "properties": { "id": "ntx-09-017", "name": "Celeste ISD", "pop": 0.0391, "rhh": 0.0017 }, "geometry": { "type": "Point", "coordinates": [ -96.295334125966122, 33.303886900001118 ] } },
{ "type": "Feature", "properties": { "id": "ntx-09-018", "name": "Celina ISD", "pop": 27447.1968, "rhh": 662.2338 }, "geometry": { "type": "Point", "coordinates": [ -96.74900827677746, 33.3385533 ] } },
{ "type": "Feature", "properties": { "id": "ntx-09-019", "name": "Community ISD", "pop": 15078.7562, "rhh": 347.3646 }, "geometry": { "type": "Point", "coordinates": [ -96.385961275054228, 33.0407933 ] } },
{ "type": "Feature", "properties": { "id": "ntx-09-020", "name": "Coppell ISD", "pop": 56888.4808, "rhh": 6898.1041 }, "geometry": { "type": "Point", "coordinates": [ -96.986844901053757, 32.9385268 ] } },
{ "type": "Feature", "properties": { "id": "ntx-09-021", "name": "Crandall ISD", "pop": 4.4847, "rhh": 0.1538 }, "geometry": { "type": "Point", "coordinates": [ -96.522951372321529, 32.5610257 ] } },
{ "type": "Feature", "properties": { "id": "ntx-09-022", "name": "Crowley ISD", "pop": 113374.896, "rhh": 15144.3667 }, "geometry": { "type": "Point", "coordinates": [ -97.399789897496476, 32.6203042 ] } },
{ "type": "Feature", "properties": { "id": "ntx-09-023", "name": "Denton ISD", "pop": 218471.243, "rhh": 30835.626 }, "geometry": { "type": "Point", "coordinates": [ -97.092865108581648, 33.1969733 ] } },
{ "type": "Feature", "properties": { "id": "ntx-09-024", "name": "DeSoto ISD", "pop": 61568.1559, "rhh": 4964.9961 }, "geometry": { "type": "Point", "coordinates": [ -96.86525353090461, 32.5840502 ] } },
{ "type": "Feature", "properties": { "id": "ntx-09-025", "name": "Duncanville ISD", "pop": 76689.982, "rhh": 10902.8103 }, "geometry": { "type": "Point", "coordinates": [ -96.939657498582505, 32.65510470000001 ] } },
{ "type": "Feature", "properties": { "id": "ntx-09-026", "name": "Eagle Mountain-Saginaw ISD", "pop": 119774.44, "rhh": 11211.9027 }, "geometry": { "type": "Point", "coordinates": [ -97.413121539285711, 32.9074362 ] } },
{ "type": "Feature", "properties": { "id": "ntx-09-027", "name": "Era ISD", "pop": 133.5248, "rhh": 12.324 }, "geometry": { "type": "Point", "coordinates": [ -97.323617193902436, 33.4176068 ] } },
{ "type": "Feature", "properties": { "id": "ntx-09-028", "name": "Everman ISD", "pop": 27229.2922, "rhh": 2884.4232 }, "geometry": { "type": "Point", "coordinates": [ -97.274135211550742, 32.6292402 ] } },
{ "type": "Feature", "properties": { "id": "ntx-09-029", "name": "Farmersville ISD", "pop": 11223.0274, "rhh": 580.9236 }, "geometry": { "type": "Point", "coordinates": [ -96.359940612202507, 33.1643578 ] } },
{ "type": "Feature", "properties": { "id": "ntx-09-030", "name": "Ferris ISD", "pop": 451.9441, "rhh": 49.743 }, "geometry": { "type": "Point", "coordinates": [ -96.658745626982281, 32.5594192 ] } },
{ "type": "Feature", "properties": { "id": "ntx-09-031", "name": "Forney ISD", "pop": 6.3529, "rhh": 0.2588 }, "geometry": { "type": "Point", "coordinates": [ -96.521249705800784, 32.665015700000012 ] } },
{ "type": "Feature", "properties": { "id": "ntx-09-032", "name": "Fort Worth ISD", "pop": 523007.0452, "rhh": 90688.5468 }, "geometry": { "type": "Point", "coordinates": [ -97.367913652501784, 32.7294092 ] } },
{ "type": "Feature", "properties": { "id": "ntx-09-033", "name": "Frisco ISD", "pop": 272900.1437, "rhh": 35438.1339 }, "geometry": { "type": "Point", "coordinates": [ -96.798483740932653, 33.1495723 ] } },
{ "type": "Feature", "properties": { "id": "ntx-09-034", "name": "Garland ISD", "pop": 312686.8992, "rhh": 35338.2284 }, "geometry": { "type": "Point", "coordinates": [ -96.609316936499241, 32.906500799999989 ] } },
{ "type": "Feature", "properties": { "id": "ntx-09-035", "name": "Godley ISD", "pop": 1430.1869, "rhh": 175.2863 }, "geometry": { "type": "Point", "coordinates": [ -97.510721354935242, 32.5775357 ] } },
{ "type": "Feature", "properties": { "id": "ntx-09-036", "name": "Grand Prairie ISD", "pop": 129608.2896, "rhh": 16466.4475 }, "geometry": { "type": "Point", "coordinates": [ -96.983325444839906, 32.7287497 ] } },
{ "type": "Feature", "properties": { "id": "ntx-09-037", "name": "Grapevine-Colleyville ISD", "pop": 84433.8664, "rhh": 13260.6276 }, "geometry": { "type": "Point", "coordinates": [ -97.099916063925434, 32.90805425 ] } },
{ "type": "Feature", "properties": { "id": "ntx-09-038", "name": "Highland Park ISD (Dallas)", "pop": 34976.8357, "rhh": 1960.8245 }, "geometry": { "type": "Point", "coordinates": [ -96.794691777421377, 32.84229125 ] } },
{ "type": "Feature", "properties": { "id": "ntx-09-039", "name": "Hurst-Euless-Bedford ISD", "pop": 161863.1149, "rhh": 33951.618 }, "geometry": { "type": "Point", "coordinates": [ -97.118913575819732, 32.8224302 ] } },
{ "type": "Feature", "properties": { "id": "ntx-09-040", "name": "Irving ISD", "pop": 188735.4472, "rhh": 39297.4877 }, "geometry": { "type": "Point", "coordinates": [ -96.960758485239666, 32.8326987 ] } },
{ "type": "Feature", "properties": { "id": "ntx-09-041", "name": "Joshua ISD", "pop": 0.0645, "rhh": 0.0054 }, "geometry": { "type": "Point", "coordinates": [ -97.470197705034593, 32.554979740740521 ] } },
{ "type": "Feature", "properties": { "id": "ntx-09-042", "name": "Keller ISD", "pop": 175803.9932, "rhh": 16863.9211 }, "geometry": { "type": "Point", "coordinates": [ -97.254865267582971, 32.9207527 ] } },
{ "type": "Feature", "properties": { "id": "ntx-09-043", "name": "Kennedale ISD", "pop": 20809.5171, "rhh": 2511.1211 }, "geometry": { "type": "Point", "coordinates": [ -97.207522584019046, 32.642663824617344 ] } },
{ "type": "Feature", "properties": { "id": "ntx-09-044", "name": "Krum ISD", "pop": 8581.4194, "rhh": 428.6716 }, "geometry": { "type": "Point", "coordinates": [ -97.28922098877041, 33.273701073084609 ] } },
{ "type": "Feature", "properties": { "id": "ntx-09-045", "name": "Lake Dallas ISD", "pop": 21322.5449, "rhh": 1981.5416 }, "geometry": { "type": "Point", "coordinates": [ -97.03770110197091, 33.12214680000001 ] } },
{ "type": "Feature", "properties": { "id": "ntx-09-046", "name": "Lake Worth ISD", "pop": 23571.5225, "rhh": 4029.8279 }, "geometry": { "type": "Point", "coordinates": [ -97.41298260984037, 32.8149629 ] } },
{ "type": "Feature", "properties": { "id": "ntx-09-047", "name": "Lancaster ISD", "pop": 44613.9745, "rhh": 5159.4465 }, "geometry": { "type": "Point", "coordinates": [ -96.767478866882243, 32.5998892 ] } },
{ "type": "Feature", "properties": { "id": "ntx-09-048", "name": "Leonard ISD", "pop": 339.7851, "rhh": 14.5047 }, "geometry": { "type": "Point", "coordinates": [ -96.320530786599036, 33.3226349 ] } },
{ "type": "Feature", "properties": { "id": "ntx-09-049", "name": "Lewisville ISD", "pop": 322958.5246, "rhh": 48991.4535 }, "geometry": { "type": "Point", "coordinates": [ -96.985760056273705, 33.0550888 ] } },
{ "type": "Feature", "properties": { "id": "ntx-09-050", "name": "Little Elm ISD", "pop": 57494.8061, "rhh": 3975.0681 }, "geometry": { "type": "Point", "coordinates": [ -96.950756264131513, 33.1456818 ] } },
{ "type": "Feature", "properties": { "id": "ntx-09-051", "name": "Lovejoy ISD", "pop": 18222.7828, "rhh": 1197.2373 }, "geometry": { "type": "Point", "coordinates": [ -96.599668355058753, 33.1193373 ] } },
{ "type": "Feature", "properties": { "id": "ntx-09-052", "name": "Mansfield ISD", "pop": 173752.9563, "rhh": 11728.2709 }, "geometry": { "type": "Point", "coordinates": [ -97.13604621342111, 32.6078307 ] } },
{ "type": "Feature", "properties": { "id": "ntx-09-053", "name": "McKinney ISD", "pop": 147037.6274, "rhh": 16134.3784 }, "geometry": { "type": "Point", "coordinates": [ -96.605856807776519, 33.2201963 ] } },
{ "type": "Feature", "properties": { "id": "ntx-09-054", "name": "Melissa ISD", "pop": 11203.0625, "rhh": 414.6766 }, "geometry": { "type": "Point", "coordinates": [ -96.553822919361124, 33.2746073 ] } },
{ "type": "Feature", "properties": { "id": "ntx-09-055", "name": "Mesquite ISD", "pop": 176493.8202, "rhh": 21428.7657 }, "geometry": { "type": "Point", "coordinates": [ -96.587340288461547, 32.7582707 ] } },
{ "type": "Feature", "properties": { "id": "ntx-09-056", "name": "Midlothian ISD", "pop": 10.0489, "rhh": 0.264 }, "geometry": { "type": "Point", "coordinates": [ -96.989699224480944, 32.54819085 ] } },
{ "type": "Feature", "properties": { "id": "ntx-09-057", "name": "Northwest ISD", "pop": 120554.8684, "rhh": 9129.7944 }, "geometry": { "type": "Point", "coordinates": [ -97.280205569609024, 33.0244518 ] } },
{ "type": "Feature", "properties": { "id": "ntx-09-058", "name": "Pilot Point ISD", "pop": 9824.2002, "rhh": 900.6636 }, "geometry": { "type": "Point", "coordinates": [ -96.935059475923737, 33.3548693 ] } },
{ "type": "Feature", "properties": { "id": "ntx-09-059", "name": "Plano ISD", "pop": 367276.3851, "rhh": 64314.9981 }, "geometry": { "type": "Point", "coordinates": [ -96.723022120950901, 33.0443598 ] } },
{ "type": "Feature", "properties": { "id": "ntx-09-060", "name": "Ponder ISD", "pop": 7740.6071, "rhh": 426.3592 }, "geometry": { "type": "Point", "coordinates": [ -97.311068937889701, 33.1816758 ] } },
{ "type": "Feature", "properties": { "id": "ntx-09-061", "name": "Princeton ISD", "pop": 21360.7122, "rhh": 1422.1827 }, "geometry": { "type": "Point", "coordinates": [ -96.492258326083117, 33.1397673 ] } },
{ "type": "Feature", "properties": { "id": "ntx-09-062", "name": "Prosper ISD", "pop": 66364.0086, "rhh": 2826.6237 }, "geometry": { "type": "Point", "coordinates": [ -96.775899464976732, 33.2387733 ] } },
{ "type": "Feature", "properties": { "id": "ntx-09-063", "name": "Red Oak ISD", "pop": 4.1236, "rhh": 0.2017 }, "geometry": { "type": "Point", "coordinates": [ -96.762439903986518, 32.54680385 ] } },
{ "type": "Feature", "properties": { "id": "ntx-09-064", "name": "Rockwall ISD", "pop": 17.8066, "rhh": 1.6389 }, "geometry": { "type": "Point", "coordinates": [ -96.432314753184784, 32.983161324036686 ] } },
{ "type": "Feature", "properties": { "id": "ntx-09-065", "name": "Royse City ISD", "pop": 2450.083, "rhh": 93.9007 }, "geometry": { "type": "Point", "coordinates": [ -96.315300553700268, 33.0042858 ] } },
{ "type": "Feature", "properties": { "id": "ntx-09-066", "name": "Sanger ISD", "pop": 17087.7352, "rhh": 1393.0922 }, "geometry": { "type": "Point", "coordinates": [ -97.172296013189566, 33.3632228 ] } },
{ "type": "Feature", "properties": { "id": "ntx-09-067", "name": "Slidell ISD", "pop": 2311.9645, "rhh": 182.1201 }, "geometry": { "type": "Point", "coordinates": [ -97.36033126455834, 33.3550879 ] } },
{ "type": "Feature", "properties": { "id": "ntx-09-068", "name": "Sunnyvale ISD", "pop": 10491.9261, "rhh": 968.6746 }, "geometry": { "type": "Point", "coordinates": [ -96.549473615095962, 32.794527577160181 ] } },
{ "type": "Feature", "properties": { "id": "ntx-09-069", "name": "Tioga ISD", "pop": 0.1037, "rhh": 0.0032 }, "geometry": { "type": "Point", "coordinates": [ -96.853449376439841, 33.413621064326584 ] } },
{ "type": "Feature", "properties": { "id": "ntx-09-070", "name": "Trenton ISD", "pop": 74.0365, "rhh": 3.1605 }, "geometry": { "type": "Point", "coordinates": [ -96.393305327627019, 33.3856164 ] } },
{ "type": "Feature", "properties": { "id": "ntx-09-071", "name": "Van Alstyne ISD", "pop": 3351.6581, "rhh": 169.4561 }, "geometry": { "type": "Point", "coordinates": [ -96.58204593491422, 33.3892924 ] } },
{ "type": "Feature", "properties": { "id": "ntx-09-072", "name": "White Settlement ISD", "pop": 34884.5696, "rhh": 4401.0743 }, "geometry": { "type": "Point", "coordinates": [ -97.507779541025926, 32.7787673 ] } },
{ "type": "Feature", "properties": { "id": "ntx-09-073", "name": "Whitewright ISD", "pop": 70.0586, "rhh": 2.9906 }, "geometry": { "type": "Point", "coordinates": [ -96.416106997788347, 33.3901929 ] } },
{ "type": "Feature", "properties": { "id": "ntx-09-074", "name": "Wylie ISD (Collin)", "pop": 75603.5392, "rhh": 4824.9349 }, "geometry": { "type": "Point", "coordinates": [ -96.539331692098273, 33.0303538 ] } },
{ "type": "Feature", "properties": { "id": "risd-03-002", "name": "Lake Highlands", "pop": 73706.3968, "rhh": 19821.9816 }, "geometry": { "type": "Point", "coordinates": [ -96.726044380493462, 32.89282995 ] } },
{ "type": "Feature", "properties": { "id": "risd-03-003", "name": "Richardson", "pop": 35644.5007, "rhh": 6072.1439 }, "geometry": { "type": "Point", "coordinates": [ -96.78682156402985, 32.9320565 ] } },
{ "type": "Feature", "properties": { "id": "risd-03-004", "name": "Pearce", "pop": 40318.361, "rhh": 7434.0075 }, "geometry": { "type": "Point", "coordinates": [ -96.743285440508117, 32.9729826 ] } },
{ "type": "Feature", "properties": { "id": "risd-03-004/003", "name": "Pearce/Richardson", "pop": 11670.0128, "rhh": 1114.42 }, "geometry": { "type": "Point", "coordinates": [ -96.777387750022996, 32.96813555 ] } },
{ "type": "Feature", "properties": { "id": "risd-03-005", "name": "Berkner", "pop": 68341.1051, "rhh": 13653.8901 }, "geometry": { "type": "Point", "coordinates": [ -96.712765287893319, 32.942558350000013 ] } }
]
}
