{
"type": "FeatureCollection",
"name": "NTEP_bubble_highschool",
"crs": { "type": "name", "properties": { "name": "urn:ogc:def:crs:EPSG::4269" } },
"features": [
{ "type": "Feature", "properties": { "id": "3-001", "name": "Adams", "pop": 73342.0661, "rhh": 11505.4189 }, "geometry": { "type": "Point", "coordinates": [ -96.689299306337915, 32.83179725 ] } },
{ "type": "Feature", "properties": { "id": "3-002", "name": "Adamson", "pop": 19101.0961, "rhh": 4395.9302 }, "geometry": { "type": "Point", "coordinates": [ -96.824250007162959, 32.7442941 ] } },
{ "type": "Feature", "properties": { "id": "3-005", "name": "Molina", "pop": 31166.7763, "rhh": 3474.4795 }, "geometry": { "type": "Point", "coordinates": [ -96.911147265480778, 32.73418255 ] } },
{ "type": "Feature", "properties": { "id": "3-006", "name": "Hillcrest", "pop": 81235.9113, "rhh": 26185.4554 }, "geometry": { "type": "Point", "coordinates": [ -96.792446424248965, 32.89900475 ] } },
{ "type": "Feature", "properties": { "id": "3-007", "name": "Jefferson", "pop": 54970.5864, "rhh": 13676.6245 }, "geometry": { "type": "Point", "coordinates": [ -96.906164650776446, 32.87420615 ] } },
{ "type": "Feature", "properties": { "id": "3-008", "name": "Kimball", "pop": 64821.774, "rhh": 9970.6686 }, "geometry": { "type": "Point", "coordinates": [ -96.87186565695103, 32.70181265 ] } },
{ "type": "Feature", "properties": { "id": "3-009", "name": "Lincoln", "pop": 11040.8564, "rhh": 2450.5316 }, "geometry": { "type": "Point", "coordinates": [ -96.751610681158155, 32.74525185 ] } },
{ "type": "Feature", "properties": { "id": "3-012", "name": "Pinkston", "pop": 40552.619, "rhh": 7706.6368 }, "geometry": { "type": "Point", "coordinates": [ -96.873260862858331, 32.76787605 ] } },
{ "type": "Feature", "properties": { "id": "3-013", "name": "Roosevelt", "pop": 34456.7125, "rhh": 5101.8171 }, "geometry": { "type": "Point", "coordinates": [ -96.793158615335656, 32.7308437 ] } },
{ "type": "Feature", "properties": { "id": "3-014", "name": "Samuell", "pop": 57811.9719, "rhh": 7391.5649 }, "geometry": { "type": "Point", "coordinates": [ -96.681032214136508, 32.74525185 ] } },
{ "type": "Feature", "properties": { "id": "3-015", "name": "Seagoville", "pop": 39235.9499, "rhh": 3333.9244 }, "geometry": { "type": "Point", "coordinates": [ -96.575080460745454, 32.62771435 ] } },
{ "type": "Feature", "properties": { "id": "3-016", "name": "SOC", "pop": 56194.7317, "rhh": 9851.9737 }, "geometry": { "type": "Point", "coordinates": [ -96.792638613672295, 32.6874356 ] } },
{ "type": "Feature", "properties": { "id": "3-017", "name": "Spruce", "pop": 58878.5455, "rhh": 6619.3219 }, "geometry": { "type": "Point", "coordinates": [ -96.679172283656385, 32.70819695 ] } },
{ "type": "Feature", "properties": { "id": "3-018", "name": "Sunset", "pop": 31781.2873, "rhh": 4095.4811 }, "geometry": { "type": "Point", "coordinates": [ -96.848408001472862, 32.74972875 ] } },
{ "type": "Feature", "properties": { "id": "3-021", "name": "White", "pop": 97910.025, "rhh": 24407.8287 }, "geometry": { "type": "Point", "coordinates": [ -96.82515581955721, 32.9275202 ] } },
{ "type": "Feature", "properties": { "id": "3-022", "name": "Wilson", "pop": 64987.5344, "rhh": 15368.4706 }, "geometry": { "type": "Point", "coordinates": [ -96.754700048005532, 32.82084235 ] } },
{ "type": "Feature", "properties": { "id": "3-023", "name": "Carter", "pop": 51511.2461, "rhh": 10524.8128 }, "geometry": { "type": "Point", "coordinates": [ -96.857199246998761, 32.66422375 ] } },
{ "type": "Feature", "properties": { "id": "3-024", "name": "North Dallas", "pop": 112332.748, "rhh": 51068.3462 }, "geometry": { "type": "Point", "coordinates": [ -96.829218101967939, 32.8110277 ] } },
{ "type": "Feature", "properties": { "id": "3-025", "name": "Skyline", "pop": 59762.357, "rhh": 10685.4829 }, "geometry": { "type": "Point", "coordinates": [ -96.70341135597954, 32.79172415 ] } },
{ "type": "Feature", "properties": { "id": "3-028", "name": "Conrad", "pop": 32599.2342, "rhh": 11730.1127 }, "geometry": { "type": "Point", "coordinates": [ -96.678685409728331, 32.8720619 ] } },
{ "type": "Feature", "properties": { "id": "3-032", "name": "Madison", "pop": 27752.3503, "rhh": 6134.0813 }, "geometry": { "type": "Point", "coordinates": [ -96.764194724183142, 32.77220085 ] } },
{ "type": "Feature", "properties": { "id": "3-380", "name": "Wilmer-Hutchins", "pop": 26714.4462, "rhh": 3332.9161 }, "geometry": { "type": "Point", "coordinates": [ -96.692695153005616, 32.62623625 ] } }
]
}
