{
"type": "FeatureCollection",
"name": "NTEP_bubble_highschool",
"crs": { "type": "name", "properties": { "name": "urn:ogc:def:crs:EPSG::4269" } },
"features": [
{ "type": "Feature", "properties": { "id": "3-001", "name": "Adams", "pop": 70389.8208, "rhh": 11127.048 }, "geometry": { "type": "Point", "coordinates": [ -96.68929930935137, 32.831797233332182 ] } },
{ "type": "Feature", "properties": { "id": "3-002", "name": "Adamson", "pop": 18419.845, "rhh": 4317.9086 }, "geometry": { "type": "Point", "coordinates": [ -96.824246183086387, 32.743464511621625 ] } },
{ "type": "Feature", "properties": { "id": "3-005", "name": "Molina", "pop": 29858.5923, "rhh": 3262.849 }, "geometry": { "type": "Point", "coordinates": [ -96.911144497919906, 32.734182565254301 ] } },
{ "type": "Feature", "properties": { "id": "3-006", "name": "Hillcrest", "pop": 77863.5871, "rhh": 25224.2511 }, "geometry": { "type": "Point", "coordinates": [ -96.792428391604005, 32.899021752157893 ] } },
{ "type": "Feature", "properties": { "id": "3-007", "name": "Jefferson", "pop": 53888.6748, "rhh": 13070.3238 }, "geometry": { "type": "Point", "coordinates": [ -96.906161378124082, 32.874206120045365 ] } },
{ "type": "Feature", "properties": { "id": "3-008", "name": "Kimball", "pop": 61836.5577, "rhh": 9965.6511 }, "geometry": { "type": "Point", "coordinates": [ -96.871765188994317, 32.702009241018501 ] } },
{ "type": "Feature", "properties": { "id": "3-009", "name": "Lincoln", "pop": 11277.1999, "rhh": 2470.9047 }, "geometry": { "type": "Point", "coordinates": [ -96.751571730385422, 32.745141264180347 ] } },
{ "type": "Feature", "properties": { "id": "3-012", "name": "Pinkston", "pop": 39807.2453, "rhh": 7994.5682 }, "geometry": { "type": "Point", "coordinates": [ -96.873237097743157, 32.767876058568071 ] } },
{ "type": "Feature", "properties": { "id": "3-013", "name": "Roosevelt", "pop": 33466.1752, "rhh": 4946.0459 }, "geometry": { "type": "Point", "coordinates": [ -96.793229594864243, 32.730662917915438 ] } },
{ "type": "Feature", "properties": { "id": "3-014", "name": "Samuell", "pop": 57583.3477, "rhh": 7468.2362 }, "geometry": { "type": "Point", "coordinates": [ -96.681035973800576, 32.745141264180347 ] } },
{ "type": "Feature", "properties": { "id": "3-015", "name": "Seagoville", "pop": 40902.6144, "rhh": 3553.025 }, "geometry": { "type": "Point", "coordinates": [ -96.575080462140164, 32.627714380404832 ] } },
{ "type": "Feature", "properties": { "id": "3-016", "name": "SOC", "pop": 55650.1754, "rhh": 9768.6954 }, "geometry": { "type": "Point", "coordinates": [ -96.792760882611361, 32.68756757955255 ] } },
{ "type": "Feature", "properties": { "id": "3-017", "name": "Spruce", "pop": 58075.5832, "rhh": 6564.1243 }, "geometry": { "type": "Point", "coordinates": [ -96.67917167942116, 32.70819693408643 ] } },
{ "type": "Feature", "properties": { "id": "3-018", "name": "Sunset", "pop": 30354.8882, "rhh": 4166.2223 }, "geometry": { "type": "Point", "coordinates": [ -96.848408077136241, 32.749779547504062 ] } },
{ "type": "Feature", "properties": { "id": "3-021", "name": "White", "pop": 94984.1532, "rhh": 23627.8591 }, "geometry": { "type": "Point", "coordinates": [ -96.825161514411846, 32.927224414456902 ] } },
{ "type": "Feature", "properties": { "id": "3-022", "name": "Wilson", "pop": 62672.3022, "rhh": 14451.0502 }, "geometry": { "type": "Point", "coordinates": [ -96.75470005778034, 32.820842326188938 ] } },
{ "type": "Feature", "properties": { "id": "3-023", "name": "Carter", "pop": 51421.9382, "rhh": 10389.1346 }, "geometry": { "type": "Point", "coordinates": [ -96.857192851460525, 32.661803182116131 ] } },
{ "type": "Feature", "properties": { "id": "3-024", "name": "North Dallas", "pop": 111361.0666, "rhh": 51454.0638 }, "geometry": { "type": "Point", "coordinates": [ -96.82921807792863, 32.811027706777473 ] } },
{ "type": "Feature", "properties": { "id": "3-025", "name": "Skyline", "pop": 57313.3696, "rhh": 10424.9303 }, "geometry": { "type": "Point", "coordinates": [ -96.703413075257671, 32.791724147189115 ] } },
{ "type": "Feature", "properties": { "id": "3-028", "name": "Conrad", "pop": 30436.2519, "rhh": 11407.049 }, "geometry": { "type": "Point", "coordinates": [ -96.678691451897834, 32.871751214784375 ] } },
{ "type": "Feature", "properties": { "id": "3-032", "name": "Madison", "pop": 28000.3871, "rhh": 6555.3945 }, "geometry": { "type": "Point", "coordinates": [ -96.764246178062095, 32.772124840342521 ] } },
{ "type": "Feature", "properties": { "id": "3-380", "name": "Wilmer-Hutchins", "pop": 27595.4614, "rhh": 3355.5854 }, "geometry": { "type": "Point", "coordinates": [ -96.692695140216799, 32.626236244596981 ] } },
{ "type": "Feature", "properties": { "id": "9-001", "name": "Aledo ISD", "pop": 1257.4863, "rhh": 29.7618 }, "geometry": { "type": "Point", "coordinates": [ -97.538031371000073, 32.6483262 ] } },
{ "type": "Feature", "properties": { "id": "9-002", "name": "Allen ISD", "pop": 101105.8221, "rhh": 10794.66 }, "geometry": { "type": "Point", "coordinates": [ -96.676731506976452, 33.1093703 ] } },
{ "type": "Feature", "properties": { "id": "9-003", "name": "Anna ISD", "pop": 24020.4591, "rhh": 1367.3792 }, "geometry": { "type": "Point", "coordinates": [ -96.526299887072156, 33.3533154 ] } },
{ "type": "Feature", "properties": { "id": "9-004", "name": "Argyle ISD", "pop": 17092.6709, "rhh": 514.7945 }, "geometry": { "type": "Point", "coordinates": [ -97.182649108285432, 33.1017868 ] } },
{ "type": "Feature", "properties": { "id": "9-005", "name": "Arlington ISD", "pop": 352448.6696, "rhh": 64887.9973 }, "geometry": { "type": "Point", "coordinates": [ -97.10653905018583, 32.721071699999989 ] } },
{ "type": "Feature", "properties": { "id": "9-006", "name": "Aubrey ISD", "pop": 17913.3722, "rhh": 1595.1218 }, "geometry": { "type": "Point", "coordinates": [ -96.964605201397006, 33.2879153 ] } },
{ "type": "Feature", "properties": { "id": "9-007", "name": "Azle ISD", "pop": 24696.0436, "rhh": 2222.7507 }, "geometry": { "type": "Point", "coordinates": [ -97.521561461230618, 32.8968242 ] } },
{ "type": "Feature", "properties": { "id": "9-008", "name": "Birdville ISD", "pop": 142638.2444, "rhh": 19085.2873 }, "geometry": { "type": "Point", "coordinates": [ -97.242824201924037, 32.8348642 ] } },
{ "type": "Feature", "properties": { "id": "9-009", "name": "Bland ISD", "pop": 489.2336, "rhh": 40.0371 }, "geometry": { "type": "Point", "coordinates": [ -96.305046421780162, 33.2380668 ] } },
{ "type": "Feature", "properties": { "id": "9-010", "name": "Blue Ridge ISD", "pop": 3522.752, "rhh": 211.9613 }, "geometry": { "type": "Point", "coordinates": [ -96.401719528473279, 33.3093564 ] } },
{ "type": "Feature", "properties": { "id": "9-011", "name": "Burleson ISD", "pop": 17782.0698, "rhh": 1364.5923 }, "geometry": { "type": "Point", "coordinates": [ -97.291436510085589, 32.5792742 ] } },
{ "type": "Feature", "properties": { "id": "9-012", "name": "Caddo Mills ISD", "pop": 0.0222, "rhh": 0.0009 }, "geometry": { "type": "Point", "coordinates": [ -96.296171818208791, 33.098946070113378 ] } },
{ "type": "Feature", "properties": { "id": "9-013", "name": "Carroll ISD", "pop": 31311.765, "rhh": 589.5945 }, "geometry": { "type": "Point", "coordinates": [ -97.142482231036212, 32.9500243 ] } },
{ "type": "Feature", "properties": { "id": "9-014", "name": "Carrollton-Farmers Branch ISD", "pop": 183665.8271, "rhh": 46251.3494 }, "geometry": { "type": "Point", "coordinates": [ -96.905674232086682, 32.9441823 ] } },
{ "type": "Feature", "properties": { "id": "9-015", "name": "Castleberry ISD", "pop": 17680.3867, "rhh": 2198.2033 }, "geometry": { "type": "Point", "coordinates": [ -97.391193819982846, 32.7818132 ] } },
{ "type": "Feature", "properties": { "id": "9-016", "name": "Cedar Hill ISD", "pop": 52117.9993, "rhh": 4847.7432 }, "geometry": { "type": "Point", "coordinates": [ -96.973095662663965, 32.5946247 ] } },
{ "type": "Feature", "properties": { "id": "9-017", "name": "Celeste ISD", "pop": 0.0375, "rhh": 0.0028 }, "geometry": { "type": "Point", "coordinates": [ -96.295334125966122, 33.303886900001118 ] } },
{ "type": "Feature", "properties": { "id": "9-018", "name": "Celina ISD", "pop": 23492.226, "rhh": 673.027 }, "geometry": { "type": "Point", "coordinates": [ -96.74900827677746, 33.3385533 ] } },
{ "type": "Feature", "properties": { "id": "9-019", "name": "Community ISD", "pop": 13651.2258, "rhh": 404.1857 }, "geometry": { "type": "Point", "coordinates": [ -96.385961275054228, 33.0407933 ] } },
{ "type": "Feature", "properties": { "id": "9-020", "name": "Coppell ISD", "pop": 56709.9553, "rhh": 6714.6592 }, "geometry": { "type": "Point", "coordinates": [ -96.986844901053757, 32.9385268 ] } },
{ "type": "Feature", "properties": { "id": "9-021", "name": "Crandall ISD", "pop": 4.689, "rhh": 0.2199 }, "geometry": { "type": "Point", "coordinates": [ -96.522951372321558, 32.5610257 ] } },
{ "type": "Feature", "properties": { "id": "9-022", "name": "Crowley ISD", "pop": 110327.8232, "rhh": 15406.9486 }, "geometry": { "type": "Point", "coordinates": [ -97.399789897496476, 32.6203042 ] } },
{ "type": "Feature", "properties": { "id": "9-023", "name": "Denton ISD", "pop": 211338.9898, "rhh": 29805.1557 }, "geometry": { "type": "Point", "coordinates": [ -97.092865108581648, 33.196973299999989 ] } },
{ "type": "Feature", "properties": { "id": "9-024", "name": "DeSoto ISD", "pop": 61008.1119, "rhh": 5040.6917 }, "geometry": { "type": "Point", "coordinates": [ -96.86525353090461, 32.5840502 ] } },
{ "type": "Feature", "properties": { "id": "9-025", "name": "Duncanville ISD", "pop": 76010.7818, "rhh": 10893.5573 }, "geometry": { "type": "Point", "coordinates": [ -96.939657498582505, 32.6551047 ] } },
{ "type": "Feature", "properties": { "id": "9-026", "name": "Eagle Mountain-Saginaw ISD", "pop": 114148.7003, "rhh": 10587.5984 }, "geometry": { "type": "Point", "coordinates": [ -97.413121539285711, 32.9074362 ] } },
{ "type": "Feature", "properties": { "id": "9-027", "name": "Era ISD", "pop": 126.4669, "rhh": 11.5641 }, "geometry": { "type": "Point", "coordinates": [ -97.323617193902436, 33.4176068 ] } },
{ "type": "Feature", "properties": { "id": "9-028", "name": "Everman ISD", "pop": 27022.2705, "rhh": 2894.1279 }, "geometry": { "type": "Point", "coordinates": [ -97.274135211550742, 32.6292402 ] } },
{ "type": "Feature", "properties": { "id": "9-029", "name": "Farmersville ISD", "pop": 11051.0948, "rhh": 748.8031 }, "geometry": { "type": "Point", "coordinates": [ -96.359940612202507, 33.1643578 ] } },
{ "type": "Feature", "properties": { "id": "9-030", "name": "Ferris ISD", "pop": 436.1751, "rhh": 53.8721 }, "geometry": { "type": "Point", "coordinates": [ -96.658771936908693, 32.5594652 ] } },
{ "type": "Feature", "properties": { "id": "9-031", "name": "Forney ISD", "pop": 6.1088, "rhh": 0.3709 }, "geometry": { "type": "Point", "coordinates": [ -96.521249705800784, 32.6650157 ] } },
{ "type": "Feature", "properties": { "id": "9-032", "name": "Fort Worth ISD", "pop": 521149.4747, "rhh": 89333.9068 }, "geometry": { "type": "Point", "coordinates": [ -97.367911499552548, 32.7294092 ] } },
{ "type": "Feature", "properties": { "id": "9-033", "name": "Frisco ISD", "pop": 261293.4714, "rhh": 32157.6409 }, "geometry": { "type": "Point", "coordinates": [ -96.798483740932653, 33.1495723 ] } },
{ "type": "Feature", "properties": { "id": "9-034", "name": "Garland ISD", "pop": 312707.8962, "rhh": 33803.1131 }, "geometry": { "type": "Point", "coordinates": [ -96.609321171635045, 32.9063983 ] } },
{ "type": "Feature", "properties": { "id": "9-035", "name": "Godley ISD", "pop": 1440.8492, "rhh": 166.8875 }, "geometry": { "type": "Point", "coordinates": [ -97.510721354935242, 32.5775357 ] } },
{ "type": "Feature", "properties": { "id": "9-036", "name": "Grand Prairie ISD", "pop": 129859.9527, "rhh": 15999.2355 }, "geometry": { "type": "Point", "coordinates": [ -96.983325444839906, 32.7287497 ] } },
{ "type": "Feature", "properties": { "id": "9-037", "name": "Grapevine-Colleyville ISD", "pop": 84077.4222, "rhh": 13004.9688 }, "geometry": { "type": "Point", "coordinates": [ -97.099916063925434, 32.90805425 ] } },
{ "type": "Feature", "properties": { "id": "9-038", "name": "Highland Park ISD (Dallas)", "pop": 34867.1371, "rhh": 2075.7418 }, "geometry": { "type": "Point", "coordinates": [ -96.794691777421377, 32.84229125 ] } },
{ "type": "Feature", "properties": { "id": "9-039", "name": "Hurst-Euless-Bedford ISD", "pop": 160941.4844, "rhh": 33225.481 }, "geometry": { "type": "Point", "coordinates": [ -97.118913575819732, 32.8224302 ] } },
{ "type": "Feature", "properties": { "id": "9-040", "name": "Irving ISD", "pop": 189510.6523, "rhh": 39104.387 }, "geometry": { "type": "Point", "coordinates": [ -96.960758485239666, 32.8326987 ] } },
{ "type": "Feature", "properties": { "id": "9-041", "name": "Joshua ISD", "pop": 0.0943, "rhh": 0.0067 }, "geometry": { "type": "Point", "coordinates": [ -97.422368146093845, 32.553987238918197 ] } },
{ "type": "Feature", "properties": { "id": "9-042", "name": "Keller ISD", "pop": 175935.7089, "rhh": 15561.8547 }, "geometry": { "type": "Point", "coordinates": [ -97.254846924197238, 32.9207527 ] } },
{ "type": "Feature", "properties": { "id": "9-043", "name": "Kennedale ISD", "pop": 20242.5396, "rhh": 2379.57 }, "geometry": { "type": "Point", "coordinates": [ -97.207522584019046, 32.642663824617344 ] } },
{ "type": "Feature", "properties": { "id": "9-044", "name": "Krum ISD", "pop": 8090.2588, "rhh": 358.8127 }, "geometry": { "type": "Point", "coordinates": [ -97.289220988770396, 33.273701073085007 ] } },
{ "type": "Feature", "properties": { "id": "9-045", "name": "Lake Dallas ISD", "pop": 20605.406, "rhh": 1864.4529 }, "geometry": { "type": "Point", "coordinates": [ -97.03770110197091, 33.12214680000001 ] } },
{ "type": "Feature", "properties": { "id": "9-046", "name": "Lake Worth ISD", "pop": 22571.864, "rhh": 3771.6436 }, "geometry": { "type": "Point", "coordinates": [ -97.41298260984037, 32.8149629 ] } },
{ "type": "Feature", "properties": { "id": "9-047", "name": "Lancaster ISD", "pop": 44480.7342, "rhh": 4940.1241 }, "geometry": { "type": "Point", "coordinates": [ -96.767478866882243, 32.5998892 ] } },
{ "type": "Feature", "properties": { "id": "9-048", "name": "Leonard ISD", "pop": 325.9184, "rhh": 24.2648 }, "geometry": { "type": "Point", "coordinates": [ -96.320530786599036, 33.3226349 ] } },
{ "type": "Feature", "properties": { "id": "9-049", "name": "Lewisville ISD", "pop": 318760.3982, "rhh": 47433.1669 }, "geometry": { "type": "Point", "coordinates": [ -96.985760056273705, 33.0550888 ] } },
{ "type": "Feature", "properties": { "id": "9-050", "name": "Little Elm ISD", "pop": 54955.183, "rhh": 3554.8608 }, "geometry": { "type": "Point", "coordinates": [ -96.950756264131513, 33.1456818 ] } },
{ "type": "Feature", "properties": { "id": "9-051", "name": "Lovejoy ISD", "pop": 17132.0023, "rhh": 1195.6103 }, "geometry": { "type": "Point", "coordinates": [ -96.599668355058753, 33.1193373 ] } },
{ "type": "Feature", "properties": { "id": "9-052", "name": "Mansfield ISD", "pop": 170477.8315, "rhh": 11609.7577 }, "geometry": { "type": "Point", "coordinates": [ -97.13604621342111, 32.6078307 ] } },
{ "type": "Feature", "properties": { "id": "9-053", "name": "McKinney ISD", "pop": 143039.2341, "rhh": 16121.0572 }, "geometry": { "type": "Point", "coordinates": [ -96.605856807776519, 33.2201963 ] } },
{ "type": "Feature", "properties": { "id": "9-054", "name": "Melissa ISD", "pop": 10119.466, "rhh": 503.6726 }, "geometry": { "type": "Point", "coordinates": [ -96.553822919361139, 33.2746073 ] } },
{ "type": "Feature", "properties": { "id": "9-055", "name": "Mesquite ISD", "pop": 176440.0258, "rhh": 21039.656 }, "geometry": { "type": "Point", "coordinates": [ -96.583938548285488, 32.7567792 ] } },
{ "type": "Feature", "properties": { "id": "9-056", "name": "Midlothian ISD", "pop": 10.0175, "rhh": 0.3145 }, "geometry": { "type": "Point", "coordinates": [ -96.989699224481114, 32.54819085 ] } },
{ "type": "Feature", "properties": { "id": "9-057", "name": "Northwest ISD", "pop": 113634.3029, "rhh": 8149.0875 }, "geometry": { "type": "Point", "coordinates": [ -97.280205569609024, 33.0244518 ] } },
{ "type": "Feature", "properties": { "id": "9-058", "name": "Pilot Point ISD", "pop": 8369.3541, "rhh": 817.065 }, "geometry": { "type": "Point", "coordinates": [ -96.935059475923737, 33.3548693 ] } },
{ "type": "Feature", "properties": { "id": "9-059", "name": "Plano ISD", "pop": 361184.8659, "rhh": 61789.4475 }, "geometry": { "type": "Point", "coordinates": [ -96.723022120950901, 33.0443598 ] } },
{ "type": "Feature", "properties": { "id": "9-060", "name": "Ponder ISD", "pop": 7086.1016, "rhh": 304.1099 }, "geometry": { "type": "Point", "coordinates": [ -97.311079339434713, 33.1812284 ] } },
{ "type": "Feature", "properties": { "id": "9-061", "name": "Princeton ISD", "pop": 20296.4435, "rhh": 1638.7568 }, "geometry": { "type": "Point", "coordinates": [ -96.492258326083117, 33.1397673 ] } },
{ "type": "Feature", "properties": { "id": "9-062", "name": "Prosper ISD", "pop": 60057.4735, "rhh": 2560.0601 }, "geometry": { "type": "Point", "coordinates": [ -96.775899464976732, 33.2387733 ] } },
{ "type": "Feature", "properties": { "id": "9-063", "name": "Red Oak ISD", "pop": 4.1628, "rhh": 0.1683 }, "geometry": { "type": "Point", "coordinates": [ -96.762439903986518, 32.54680385 ] } },
{ "type": "Feature", "properties": { "id": "9-064", "name": "Richardson ISD", "pop": 233870.2816, "rhh": 47651.4606 }, "geometry": { "type": "Point", "coordinates": [ -96.740684592501836, 32.9238228 ] } },
{ "type": "Feature", "properties": { "id": "9-065", "name": "Rockwall ISD", "pop": 18.4775, "rhh": 1.7044 }, "geometry": { "type": "Point", "coordinates": [ -96.416244147779324, 32.98210870787274 ] } },
{ "type": "Feature", "properties": { "id": "9-066", "name": "Royse City ISD", "pop": 2354.9008, "rhh": 86.2717 }, "geometry": { "type": "Point", "coordinates": [ -96.315300553700268, 33.0042858 ] } },
{ "type": "Feature", "properties": { "id": "9-067", "name": "Sanger ISD", "pop": 16772.2213, "rhh": 1464.6197 }, "geometry": { "type": "Point", "coordinates": [ -97.172296013189566, 33.363222799999988 ] } },
{ "type": "Feature", "properties": { "id": "9-068", "name": "Slidell ISD", "pop": 2170.7278, "rhh": 163.8652 }, "geometry": { "type": "Point", "coordinates": [ -97.36033126455834, 33.3550879 ] } },
{ "type": "Feature", "properties": { "id": "9-069", "name": "Sunnyvale ISD", "pop": 10183.4654, "rhh": 906.9874 }, "geometry": { "type": "Point", "coordinates": [ -96.549473615095962, 32.794527577160096 ] } },
{ "type": "Feature", "properties": { "id": "9-070", "name": "Tioga ISD", "pop": 0.0717, "rhh": 0.0027 }, "geometry": { "type": "Point", "coordinates": [ -96.853449376439841, 33.413621064326584 ] } },
{ "type": "Feature", "properties": { "id": "9-071", "name": "Trenton ISD", "pop": 71.0013, "rhh": 5.2861 }, "geometry": { "type": "Point", "coordinates": [ -96.393308646801032, 33.3856164 ] } },
{ "type": "Feature", "properties": { "id": "9-072", "name": "Van Alstyne ISD", "pop": 3032.7172, "rhh": 161.995 }, "geometry": { "type": "Point", "coordinates": [ -96.58204593491422, 33.3892924 ] } },
{ "type": "Feature", "properties": { "id": "9-073", "name": "White Settlement ISD", "pop": 34648.4396, "rhh": 4734.4196 }, "geometry": { "type": "Point", "coordinates": [ -97.507779541025926, 32.7787673 ] } },
{ "type": "Feature", "properties": { "id": "9-074", "name": "Whitewright ISD", "pop": 67.1995, "rhh": 5.003 }, "geometry": { "type": "Point", "coordinates": [ -96.416107222032593, 33.3901714 ] } },
{ "type": "Feature", "properties": { "id": "9-075", "name": "Wylie ISD (Collin)", "pop": 73328.8913, "rhh": 5066.8458 }, "geometry": { "type": "Point", "coordinates": [ -96.539331692098287, 33.0303538 ] } }
]
}
